id,name,brand,region,zone_type,lat,lng,address,phone,fuels
1,АТАН,,АР Крым и г. Севастополь,critical,44.9531,34.1035,"ул. Киевская, 146",,АИ-92:66%(green) | АИ-95:65%(green) | АИ-95+:87%(green) | Газ:59%(yellow) | ДТ+:92%(green)
2,АТАН,,АР Крым и г. Севастополь,critical,44.9489,34.089,"ул. Данилова, 68",,АИ-100:46%(yellow) | АИ-92:73%(green) | Газ:0%(red) | ДТ:5%(red) | ДТ+:42%(yellow)
3,АТАН,,АР Крым и г. Севастополь,critical,44.595,33.524,"ул. Хрусталева, 76",,АИ-100:19%(red) | АИ-92:62%(green) | АИ-95+:17%(red)
4,АТАН,,АР Крым и г. Севастополь,critical,44.5812,33.507,"пр-т Острякова, 252",,АИ-95+:29%(yellow) | Газ:74%(green) | ДТ:11%(red)
5,АТАН,,АР Крым и г. Севастополь,critical,44.5021,34.164,"Южнобережное ш., 5 (Ялта)",,АИ-100:38%(yellow) | АИ-92:5%(red) | Газ:100%(green)
7,АТАН,,АР Крым и г. Севастополь,critical,45.021,35.382,"Симферопольское ш., 11 (Феодосия)",,АИ-92:91%(green) | АИ-95:54%(yellow) | АИ-95+:95%(green) | ДТ:68%(green)
8,ТЭС,,АР Крым и г. Севастополь,critical,44.5673,33.445,"Камышовое ш., 40",,АИ-100:30%(yellow) | АИ-95:13%(red) | Газ:3%(red) | ДТ:68%(green) | ДТ+:70%(green)
9,ТЭС,,АР Крым и г. Севастополь,critical,44.6021,33.518,"ул. Руднева, 31",,АИ-100:32%(yellow) | АИ-95+:24%(red) | Газ:59%(yellow) | ДТ:0%(red)
10,ТЭС,,АР Крым и г. Севастополь,critical,44.941,34.095,"ул. Севастопольская, 261",,АИ-100:23%(red) | АИ-92:20%(red) | АИ-95:92%(green) | Газ:16%(red)
11,ТЭС,,АР Крым и г. Севастополь,critical,44.958,34.102,"пр-т Победы, 211",,АИ-95:16%(red) | АИ-95+:61%(green) | Газ:19%(red) | ДТ:9%(red) | ДТ+:83%(green)
12,ТЭС,,АР Крым и г. Севастополь,critical,45.028,35.412,"Керченское ш., 14В (Феодосия)",,АИ-92:17%(red) | ДТ:2%(red) | ДТ+:4%(red)
13,ТЭС,,АР Крым и г. Севастополь,critical,44.675,34.412,"ул. Симферопольская, 20 (Алушта)",,АИ-100:12%(red) | АИ-95:20%(red) | Газ:6%(red) | ДТ:24%(red)
14,ТЭС,,АР Крым и г. Севастополь,critical,45.189,33.375,"Евпаторийское ш., 2 (Евпатория)",,АИ-100:97%(green) | АИ-92:39%(yellow) | АИ-95:100%(green) | ДТ:64%(green) | ДТ+:10%(red)
15,Роснефть,,АР Крым и г. Севастополь,critical,44.588,33.532,"ул. Генерала Мельника, 11",,АИ-100:40%(yellow) | АИ-95:13%(red) | ДТ:66%(green) | ДТ+:18%(red)
16,Роснефть,,АР Крым и г. Севастополь,critical,44.9612,34.112,"ул. Киевская, 187",,АИ-100:81%(green) | АИ-92:72%(green) | Газ:3%(red) | ДТ:33%(yellow)
17,Роснефть,,АР Крым и г. Севастополь,critical,44.572,33.438,"Камышовое ш., 27",,АИ-100:17%(red) | АИ-92:2%(red) | АИ-95:94%(green) | Газ:7%(red)
18,Лукойл,,АР Крым и г. Севастополь,critical,44.949,34.082,"ул. Октябрьская, 14",,АИ-100:60%(green) | АИ-92:95%(green) | АИ-95:8%(red) | Газ:14%(red)
20,РТК,,Донецкая область,critical,48.0159,37.8058,"ул. Университетская, 104",,АИ-92:40%(yellow) | АИ-95:40%(yellow) | ДТ:64%(green)
21,РТК,,Донецкая область,critical,47.9832,37.781,"пр-т Ленинский, 4А",,АИ-95+:79%(green) | Газ:85%(green) | ДТ:45%(yellow) | ДТ+:6%(red)
22,РТК,,Донецкая область,critical,48.0081,37.819,"ул. Куйбышева, 143",,АИ-100:73%(green) | АИ-92:3%(red) | ДТ:33%(yellow)
23,Роснефть,,Донецкая область,critical,47.995,37.812,"пр-т Ильича, 15Б",,АИ-95:20%(red) | АИ-95+:59%(yellow) | Газ:19%(red)
24,Роснефть,,Донецкая область,critical,48.0072,37.795,"ул. Артема, 286",,АИ-100:100%(green) | АИ-92:81%(green) | АИ-95+:98%(green) | Газ:66%(green) | ДТ:4%(red)
25,Роснефть,,Луганская область,critical,48.5668,39.3373,"ул. Советская, 22",,АИ-100:88%(green) | АИ-92:68%(green) | АИ-95+:1%(red) | ДТ+:41%(yellow)
26,Восток-Ресурс,,Луганская область,critical,48.559,39.329,"ул. Оборонная, 34",,АИ-92:83%(green) | АИ-95:62%(green) | АИ-95+:6%(red) | Газ:34%(yellow) | ДТ+:27%(yellow)
27,Роснефть,,Луганская область,critical,48.572,39.341,"ул. Артема, 120",,АИ-100:0%(red) | АИ-95:81%(green) | Газ:7%(red) | ДТ:5%(red)
28,Газпромнефть,,г. Москва и Новая Москва,standard,55.6102,37.6015,"Варшавское ш., вл.141А",,АИ-92:74%(green) | АИ-95:7%(red) | АИ-95+:89%(green) | Газ:31%(yellow) | ДТ+:62%(green)
29,Газпромнефть,,г. Москва и Новая Москва,standard,55.8562,37.6318,"пр-т Мира, вл.222",,АИ-100:92%(green) | АИ-92:76%(green) | АИ-95:8%(red) | АИ-95+:94%(green) | ДТ:61%(green)
30,Газпромнефть,,г. Москва и Новая Москва,standard,55.8891,37.542,"Дмитровское ш., 62",,АИ-100:62%(green) | АИ-92:80%(green) | Газ:92%(green) | ДТ:96%(green)
31,Газпромнефть,,г. Москва и Новая Москва,standard,55.731,37.758,"Рязанский пр-т, 2",,АИ-95:44%(yellow) | АИ-95+:86%(green) | Газ:81%(green) | ДТ:32%(yellow) | ДТ+:78%(green)
32,Лукойл,,г. Москва и Новая Москва,standard,55.7932,37.5651,"Ленинградский пр-т, вл.37",,АИ-100:36%(yellow) | Газ:60%(green) | ДТ+:44%(yellow)
33,Лукойл,,г. Москва и Новая Москва,standard,55.718,37.704,"Волгоградский пр-т, 39",,АИ-100:54%(yellow) | ДТ:73%(green) | ДТ+:70%(green)
34,Лукойл,,г. Москва и Новая Москва,standard,55.768,37.421,"ул. Нижние Мневники, 68",,АИ-92:19%(red) | АИ-95+:75%(green) | Газ:39%(yellow) | ДТ:34%(yellow) | ДТ+:40%(yellow)
35,Teboil,,г. Москва и Новая Москва,standard,55.7392,37.382,"Кутузовский пр-т, 52",,АИ-100:24%(red) | АИ-95:24%(red) | ДТ:60%(green) | ДТ+:75%(green)
36,Teboil,,г. Москва и Новая Москва,standard,55.785,37.412,"МКАД, 26-й км, вл.4",,Газ:95%(green) | ДТ:89%(green) | ДТ+:67%(green)
37,Роснефть,,г. Москва и Новая Москва,standard,55.7325,37.359,"Кутузовский пр-т, вл.72",,АИ-100:55%(yellow) | АИ-95+:70%(green) | Газ:58%(yellow) | ДТ:75%(green) | ДТ+:42%(yellow)
38,Роснефть,,г. Москва и Новая Москва,standard,55.752,37.738,"Шоссе Энтузиастов, 27",,АИ-100:80%(green) | АИ-92:2%(red) | АИ-95:69%(green) | АИ-95+:74%(green)
39,Роснефть,,г. Москва и Новая Москва,standard,55.652,37.589,"Севастопольский пр-т, 86",,АИ-100:73%(green) | АИ-95+:49%(yellow) | Газ:0%(red) | ДТ:18%(red)
40,Татнефть,,г. Москва и Новая Москва,standard,55.605,37.372,"МКАД, 74-й км, вл.5",,АИ-100:39%(yellow) | АИ-95+:13%(red) | Газ:94%(green)
41,Татнефть,,г. Москва и Новая Москва,standard,55.672,37.258,"Боровское ш., вл.17",,АИ-100:85%(green) | АИ-92:19%(red) | Газ:54%(yellow) | ДТ+:85%(green)
42,ПТК,,г. Санкт-Петербург,standard,59.9882,30.241,"ул. Савушкина, 85",,АИ-100:80%(green) | АИ-92:65%(green) | АИ-95:80%(green) | Газ:84%(green) | ДТ+:86%(green)
43,ПТК,,г. Санкт-Петербург,standard,60.012,30.402,"пр-т Науки, 17",,АИ-92:40%(yellow) | АИ-95:40%(yellow) | АИ-95+:61%(green) | Газ:67%(green) | ДТ:62%(green)
44,Роснефть,,г. Санкт-Петербург,standard,59.898,30.441,"Октябрьская наб., 56",,АИ-100:100%(green) | АИ-92:72%(green) | АИ-95:49%(yellow) | АИ-95+:3%(red) | Газ:44%(yellow)
45,Роснефть,,г. Санкт-Петербург,standard,59.862,30.317,"Витебский пр-т, 15",,АИ-92:86%(green) | АИ-95+:83%(green) | Газ:47%(yellow) | ДТ:81%(green) | ДТ+:31%(yellow)
46,Роснефть,,г. Санкт-Петербург,standard,59.845,30.325,"Московское ш., 25",,АИ-100:59%(yellow) | АИ-92:75%(green) | АИ-95:54%(yellow) | Газ:42%(yellow) | ДТ+:97%(green)
47,Лукойл,,г. Санкт-Петербург,standard,59.973,30.332,"Выборгская наб., 45",,АИ-100:5%(red) | АИ-95:91%(green) | ДТ:82%(green) | ДТ+:46%(yellow)
48,Лукойл,,г. Санкт-Петербург,standard,59.834,30.318,"Пулковское ш., 33",,АИ-92:56%(yellow) | АИ-95:61%(green) | АИ-95+:86%(green) | ДТ:75%(green) | ДТ+:74%(green)
49,Лукойл,,г. Санкт-Петербург,standard,59.828,30.392,"Малая Балканская, 59",,АИ-95+:95%(green) | ДТ:17%(red) | ДТ+:87%(green)
50,Газпромнефть,,г. Санкт-Петербург,standard,59.9012,30.3591,"Лиговский пр-т, 289",,АИ-100:72%(green) | АИ-92:42%(yellow) | АИ-95+:94%(green) | ДТ:73%(green) | ДТ+:22%(red)
51,Газпромнефть,,г. Санкт-Петербург,standard,60.0021,30.218,"Богатырский пр-т, 12",,АИ-95:94%(green) | АИ-95+:62%(green) | Газ:71%(green)
52,Газпромнефть,,г. Санкт-Петербург,standard,59.932,30.418,"Придорожная аллея, 28",,АИ-100:63%(green) | АИ-92:90%(green) | АИ-95:55%(yellow) | ДТ:64%(green) | ДТ+:81%(green)
53,Татнефть,,г. Санкт-Петербург,standard,60.058,30.472,"Токсовское ш., 6",,АИ-92:3%(red) | ДТ:96%(green) | ДТ+:2%(red)
54,Роснефть,,Краснодарский край,standard,45.0512,38.9782,"ул. Мачуги, 2",,АИ-100:66%(green) | АИ-95:99%(green) | Газ:13%(red) | ДТ:9%(red) | ДТ+:6%(red)
55,Роснефть,,Краснодарский край,standard,45.0312,38.951,"ул. Новороссийская, 238",,АИ-92:60%(green) | АИ-95:98%(green) | АИ-95+:54%(yellow) | ДТ:78%(green) | ДТ+:62%(green)
57,Роснефть,,Краснодарский край,standard,43.589,39.728,"ул. Виноградная, 192А (Сочи)",,АИ-100:98%(green) | АИ-92:87%(green) | АИ-95+:91%(green) | Газ:79%(green) | ДТ:42%(yellow)
58,Лукойл,,Краснодарский край,standard,45.018,38.967,"ул. Уральская, 106",,АИ-92:21%(red) | АИ-95:36%(yellow) | Газ:27%(yellow) | ДТ+:88%(green)
59,Газпром,,Краснодарский край,standard,45.082,39.012,"Ейское ш., 12",,АИ-100:81%(green) | АИ-92:91%(green) | АИ-95:85%(green) | Газ:10%(red) | ДТ+:66%(green)
60,Роснефть,,Ростовская область,standard,47.225,39.7101,"ул. Текучёва, 244",,АИ-92:85%(green) | АИ-95+:0%(red) | ДТ:63%(green) | ДТ+:59%(yellow)
61,Роснефть,,Ростовская область,standard,47.258,39.682,"пр-т Шолохова, 264",,АИ-100:14%(red) | АИ-92:100%(green) | Газ:68%(green) | ДТ:40%(yellow) | ДТ+:15%(red)
62,Роснефть,,Ростовская область,standard,47.242,39.765,"ул. Малиновского, 222",,АИ-100:34%(yellow) | АИ-92:3%(red) | Газ:78%(green) | ДТ:67%(green) | ДТ+:77%(green)
63,ОПТИ,,Ростовская область,standard,47.232,39.745,"ул. Малиновского, 11Д",,АИ-100:98%(green) | АИ-95:68%(green) | Газ:8%(red) | ДТ+:51%(yellow)
64,Газпром,,Ростовская область,standard,47.218,39.7321,"ул. Текучева, 372",,АИ-92:14%(red) | АИ-95+:82%(green) | Газ:56%(yellow) | ДТ:94%(green)
65,Татнефть,,Республика Татарстан,standard,55.7802,49.184,"ул. Чистопольская, 43",,АИ-100:69%(green) | АИ-95:90%(green) | Газ:86%(green) | ДТ+:49%(yellow)
66,Татнефть,,Республика Татарстан,standard,55.812,49.221,"ул. Ямашева, 98",,АИ-95+:69%(green) | Газ:89%(green) | ДТ:14%(red)
67,Татнефть,,Республика Татарстан,standard,55.838,49.092,"пр-т Победы, 141",,АИ-100:17%(red) | АИ-92:46%(yellow) | АИ-95:50%(yellow) | АИ-95+:80%(green) | Газ:56%(yellow)
68,Татнефть,,Республика Татарстан,standard,55.728,52.412,"пр-т Мира, 22 (Набережные Челны)",,АИ-92:66%(green) | АИ-95:31%(yellow) | АИ-95+:79%(green) | ДТ:63%(green) | ДТ+:1%(red)
69,Лукойл,,Нижегородская область,standard,56.3012,44.018,"ул. Родионова, 192",,АИ-100:36%(yellow) | АИ-95:65%(green) | Газ:40%(yellow) | ДТ+:49%(yellow)
70,Газпромнефть,,Нижегородская область,standard,56.298,44.021,"ул. Родионова, 165",,АИ-100:60%(green) | АИ-95+:21%(red) | ДТ+:14%(red)
71,Татнефть,,Нижегородская область,standard,56.265,43.987,"Московское ш., 302А",,АИ-100:87%(green) | АИ-95+:54%(yellow) | ДТ:37%(yellow)
72,Роснефть,,Воронежская область,critical,51.672,39.192,"ул. Димитрова, 132А",,АИ-100:96%(green) | АИ-92:43%(yellow) | АИ-95:85%(green) | АИ-95+:24%(red)
73,ОПТИ,,Воронежская область,critical,51.648,39.208,"Ленинский пр-т, 174В",,АИ-95:33%(yellow) | АИ-95+:88%(green) | Газ:72%(green) | ДТ:27%(yellow)
74,Роснефть,,Воронежская область,critical,51.695,39.231,"пр-т Патриотов, 47",,АИ-100:8%(red) | АИ-92:94%(green) | АИ-95:37%(yellow) | АИ-95+:11%(red) | ДТ:42%(yellow)
75,Башнефть,,Республика Башкортостан,standard,54.735,55.958,"ул. Менделеева, 132",,АИ-100:17%(red) | АИ-92:50%(yellow) | АИ-95+:23%(red) | Газ:74%(green) | ДТ:85%(green)
76,Башнефть,,Республика Башкортостан,standard,54.758,56.012,"ул. Салавата Юлаева, 45",,АИ-100:3%(red) | АИ-92:100%(green) | АИ-95+:55%(yellow) | ДТ:95%(green) | ДТ+:99%(green)
77,Башнефть,,Республика Башкортостан,standard,54.781,55.983,"пр-т Октября, 143",,АИ-100:91%(green) | АИ-92:83%(green) | АИ-95+:75%(green) | Газ:62%(green) | ДТ+:4%(red)
78,Газпром,,Ставропольский край,standard,45.045,41.968,"ул. Доваторцев, 61",,АИ-100:88%(green) | АИ-95:83%(green) | АИ-95+:11%(red) | Газ:42%(yellow) | ДТ+:91%(green)
79,Роснефть,,Ставропольский край,standard,45.038,41.971,"ул. Доваторцев, 28",,АИ-100:26%(yellow) | АИ-92:73%(green) | АИ-95:81%(green) | АИ-95+:14%(red) | ДТ+:67%(green)
80,Лукойл,,Волгоградская область,standard,48.7081,44.5152,"пр-т Ленина, 94",,АИ-92:69%(green) | АИ-95:74%(green) | АИ-95+:17%(red) | Газ:69%(green) | ДТ:25%(yellow)
81,Лукойл,,Волгоградская область,standard,48.692,44.532,"ул. Рокоссовского, 62",,АИ-92:26%(yellow) | АИ-95:63%(green) | ДТ+:75%(green)
82,Газпромнефть,,Ярославская область,standard,57.618,39.852,"Московский пр-т, 78",,АИ-100:1%(red) | АИ-92:66%(green) | ДТ:83%(green) | ДТ+:74%(green)
83,Газпромнефть,,Ярославская область,standard,57.635,39.878,"ул. Гагарина, 52",,АИ-100:65%(green) | АИ-92:56%(yellow) | Газ:53%(yellow) | ДТ+:52%(yellow)
84,Лукойл,,Самарская область,standard,53.192,50.148,"Московское ш., 18-й км",,АИ-92:45%(yellow) | АИ-95:98%(green) | АИ-95+:89%(green)
85,Башнефть,,Самарская область,standard,53.218,50.192,"ул. Авроры, 150",,АИ-92:38%(yellow) | Газ:20%(red) | ДТ+:17%(red)
86,Лукойл,,Пермский край,standard,58.012,56.258,"ул. Промышленная, 84",,АИ-100:66%(green) | АИ-95+:80%(green) | Газ:48%(yellow)
87,Лукойл,,Пермский край,standard,58.028,56.235,"ул. Попова, 22",,АИ-92:83%(green) | Газ:28%(yellow) | ДТ:51%(yellow) | ДТ+:46%(yellow)
88,Газпром,,Белгородская область,critical,50.598,36.592,"ул. Студенческая, 2Г",,АИ-92:90%(green) | АИ-95+:66%(green) | Газ:47%(yellow) | ДТ+:92%(green)
89,Роснефть,,Белгородская область,critical,50.612,36.581,"пр-т Б. Хмельницкого, 137",,АИ-92:17%(red) | АИ-95:42%(yellow) | АИ-95+:19%(red) | ДТ:26%(yellow)
92,Газпромнефть,,Тверская область,standard,56.852,35.932,"Московское ш., 18",,АИ-100:51%(yellow) | Газ:87%(green) | ДТ:97%(green) | ДТ+:92%(green)
94,ТЭС,,АР Крым и г. Севастополь,critical,44.805832,35.229545,"бульв. Рабочая, 19",,АИ-100:13%(red) | АИ-92:50%(yellow) | Газ:64%(green) | ДТ+:18%(red)
95,Роснефть,,АР Крым и г. Севастополь,critical,44.833636,35.912119,"пр-т Варшавская, 213",,АИ-100:23%(red) | АИ-92:50%(yellow) | АИ-95+:50%(yellow) | ДТ:2%(red) | ДТ+:81%(green)
96,Лукойл,,АР Крым и г. Севастополь,critical,44.974277,33.90415,"ш. Рабочая, 187",,АИ-100:45%(yellow) | АИ-92:53%(yellow) | АИ-95:29%(yellow) | Газ:71%(green) | ДТ+:100%(green)
97,Грифон,,АР Крым и г. Севастополь,critical,44.872534,34.619195,"проезд Новая, 204",,АИ-92:83%(green) | АИ-95+:2%(red) | ДТ:88%(green) | ДТ+:30%(yellow)
98,АТАН,,АР Крым и г. Севастополь,critical,44.898237,34.841223,"проезд Гагарина, 116",,АИ-100:36%(yellow) | АИ-95:46%(yellow) | АИ-95+:2%(red) | ДТ:88%(green) | ДТ+:63%(green)
99,ТЭС,,АР Крым и г. Севастополь,critical,44.787566,35.786636,"пер. Шоссейная, 199",,АИ-92:98%(green) | АИ-95+:10%(red) | ДТ:49%(yellow) | ДТ+:66%(green)
100,Роснефть,,АР Крым и г. Севастополь,critical,45.406756,34.206603,"проезд Береговая, 34",,АИ-100:26%(yellow) | АИ-92:58%(yellow) | АИ-95+:87%(green) | ДТ:36%(yellow) | ДТ+:4%(red)
101,Лукойл,,АР Крым и г. Севастополь,critical,44.633728,33.75767,"ул. Промышленная, 217",,Газ:19%(red) | ДТ:81%(green) | ДТ+:84%(green)
102,РТК,,Донецкая область,critical,47.698931,38.316407,"бульв. Пушкина, 185",,АИ-100:88%(green) | АИ-92:19%(red) | АИ-95:90%(green) | АИ-95+:75%(green)
103,ДНР-Нефть,,Донецкая область,critical,48.246138,38.083797,"пер. Варшавская, 197",,АИ-100:4%(red) | Газ:6%(red) | ДТ:1%(red) | ДТ+:48%(yellow)
104,Роснефть,,Донецкая область,critical,48.282541,37.980228,"ул. Промышленная, 22",,АИ-100:74%(green) | АИ-95+:87%(green) | ДТ:11%(red)
105,АЗС Восток,,Донецкая область,critical,47.558583,37.953814,"пр-т Транспортная, 21",,АИ-92:69%(green) | АИ-95:20%(red) | АИ-95+:78%(green) | ДТ+:15%(red)
106,РТК,,Донецкая область,critical,48.016021,38.169162,"ул. Победы, 66",,АИ-95:32%(yellow) | Газ:19%(red) | ДТ:7%(red)
107,ДНР-Нефть,,Донецкая область,critical,47.552524,37.797669,"бульв. Варшавская, 17",,АИ-100:34%(yellow) | Газ:57%(yellow) | ДТ:60%(green)
108,Роснефть,,Донецкая область,critical,48.12773,37.355896,"проезд Строителей, 135",,АИ-92:55%(yellow) | Газ:11%(red) | ДТ:84%(green) | ДТ+:8%(red)
109,АЗС Восток,,Донецкая область,critical,47.765239,38.248498,"ул. Полевая, 35",,АИ-95+:5%(red) | Газ:55%(yellow) | ДТ:21%(red)
110,РТК,,Донецкая область,critical,47.569411,38.474762,"пер. Гагарина, 76",,АИ-92:79%(green) | АИ-95:59%(yellow) | Газ:27%(yellow)
111,ДНР-Нефть,,Донецкая область,critical,47.892672,38.483599,"проезд Полевая, 70",,АИ-100:71%(green) | АИ-95+:49%(yellow) | Газ:23%(red)
112,Роснефть,,Донецкая область,critical,47.904082,38.514853,"ш. Строителей, 187",,АИ-100:80%(green) | АИ-92:45%(yellow) | АИ-95:52%(yellow) | ДТ:44%(yellow)
113,АЗС Восток,,Донецкая область,critical,47.988299,37.849546,"проезд Рабочая, 158",,АИ-92:4%(red) | АИ-95+:50%(yellow) | ДТ:21%(red) | ДТ+:35%(yellow)
114,РТК,,Донецкая область,critical,47.638853,37.448391,"проезд Заводская, 93",,АИ-92:29%(yellow) | АИ-95:45%(yellow) | Газ:58%(yellow) | ДТ:48%(yellow)
115,ДНР-Нефть,,Донецкая область,critical,48.556572,37.049235,"пр-т Ленинградская, 133",,АИ-92:9%(red) | АИ-95+:56%(yellow) | Газ:68%(green) | ДТ:6%(red)
116,Роснефть,,Донецкая область,critical,47.689922,38.355403,"ул. Лесная, 171",,АИ-92:22%(red) | АИ-95+:32%(yellow) | ДТ:48%(yellow) | ДТ+:5%(red)
117,АЗС Восток,,Донецкая область,critical,47.76041,37.938642,"ш. Заводская, 120",,АИ-92:2%(red) | АИ-95:55%(yellow) | Газ:53%(yellow) | ДТ:51%(yellow) | ДТ+:80%(green)
118,РТК,,Донецкая область,critical,47.641168,38.575202,"бульв. Красная, 197",,АИ-100:16%(red) | АИ-92:74%(green) | ДТ:70%(green)
119,ДНР-Нефть,,Донецкая область,critical,48.484419,38.607274,"ш. Морская, 163",,АИ-92:96%(green) | АИ-95:99%(green) | АИ-95+:34%(yellow) | Газ:19%(red) | ДТ:61%(green)
120,Роснефть,,Донецкая область,critical,48.543402,38.464943,"ш. Садовая, 197",,АИ-100:44%(yellow) | АИ-92:64%(green) | АИ-95+:55%(yellow) | Газ:35%(yellow) | ДТ:50%(yellow)
121,АЗС Восток,,Донецкая область,critical,47.874212,37.272971,"проезд Лесная, 188",,АИ-100:89%(green) | АИ-92:84%(green) | АИ-95:88%(green) | АИ-95+:66%(green)
122,РТК,,Донецкая область,critical,48.558954,38.714391,"ш. Лесная, 49",,АИ-100:44%(yellow) | Газ:16%(red) | ДТ:30%(yellow)
123,ДНР-Нефть,,Донецкая область,critical,47.736659,37.670501,"ул. Промышленная, 127",,АИ-100:24%(red) | АИ-95+:27%(yellow) | Газ:66%(green) | ДТ:37%(yellow) | ДТ+:41%(yellow)
124,Роснефть,,Донецкая область,critical,47.817462,37.734063,"пер. Южная, 212",,АИ-92:6%(red) | АИ-95:50%(yellow) | Газ:27%(yellow) | ДТ:48%(yellow) | ДТ+:46%(yellow)
125,ЛНР-Топливо,,Луганская область,critical,48.784951,39.545156,"бульв. Варшавская, 39",,АИ-92:26%(yellow) | АИ-95:57%(yellow) | АИ-95+:17%(red) | Газ:44%(yellow) | ДТ:44%(yellow)
126,Восток-Ресурс,,Луганская область,critical,48.741187,39.773867,"бульв. Новая, 204",,АИ-100:58%(yellow) | АИ-92:18%(red) | АИ-95:49%(yellow) | Газ:24%(red) | ДТ+:39%(yellow)
127,Роснефть,,Луганская область,critical,48.266416,39.244341,"проезд Корабельная, 49",,АИ-100:73%(green) | АИ-95+:55%(yellow) | Газ:23%(red)
128,ЛНР-Топливо,,Луганская область,critical,48.570552,39.229153,"проезд Профсоюзная, 135",,АИ-100:8%(red) | АИ-95:37%(yellow) | АИ-95+:41%(yellow) | Газ:39%(yellow)
129,Восток-Ресурс,,Луганская область,critical,48.775391,39.397312,"пер. Лесная, 123",,АИ-95+:24%(red) | Газ:9%(red) | ДТ:94%(green) | ДТ+:50%(yellow)
130,Роснефть,,Луганская область,critical,49.050845,38.602738,"пер. Северная, 192",,АИ-95:22%(red) | АИ-95+:93%(green) | Газ:66%(green) | ДТ:40%(yellow)
131,ЛНР-Топливо,,Луганская область,critical,48.05774,39.037292,"проезд Профсоюзная, 26",,АИ-100:2%(red) | АИ-92:9%(red) | АИ-95:37%(yellow) | Газ:55%(yellow) | ДТ+:63%(green)
132,Восток-Ресурс,,Луганская область,critical,49.004553,38.727584,"пр-т Гагарина, 215",,АИ-100:98%(green) | АИ-95:81%(green) | АИ-95+:94%(green) | Газ:0%(red)
133,Роснефть,,Луганская область,critical,48.978186,38.67446,"бульв. Варшавская, 70",,АИ-92:36%(yellow) | АИ-95+:81%(green) | Газ:89%(green)
134,ЛНР-Топливо,,Луганская область,critical,48.741841,38.75111,"бульв. Береговая, 212",,АИ-100:84%(green) | АИ-92:75%(green) | АИ-95+:15%(red) | ДТ:36%(yellow)
135,Восток-Ресурс,,Луганская область,critical,48.829132,39.740245,"ш. Ленина, 67",,АИ-92:22%(red) | АИ-95:22%(red) | АИ-95+:79%(green) | Газ:78%(green) | ДТ+:92%(green)
136,Роснефть,,Луганская область,critical,48.242934,39.744569,"пер. Кирова, 117",,АИ-100:2%(red) | АИ-95+:21%(red) | Газ:58%(yellow) | ДТ:6%(red) | ДТ+:2%(red)
137,ЛНР-Топливо,,Луганская область,critical,48.911651,39.673755,"пр-т Кирова, 43",,АИ-100:28%(yellow) | АИ-92:57%(yellow) | Газ:56%(yellow) | ДТ:92%(green)
138,Восток-Ресурс,,Луганская область,critical,48.620302,39.226436,"проезд Новая, 186",,АИ-100:18%(red) | АИ-92:64%(green) | АИ-95+:87%(green)
139,Роснефть,,Луганская область,critical,49.028041,38.589725,"пер. Гагарина, 74",,АИ-100:59%(yellow) | АИ-95:12%(red) | АИ-95+:82%(green) | Газ:49%(yellow)
140,ЛНР-Топливо,,Луганская область,critical,49.092131,39.010976,"пр-т Центральная, 214",,АИ-92:49%(yellow) | АИ-95+:7%(red) | Газ:59%(yellow)
141,Восток-Ресурс,,Луганская область,critical,48.170634,38.745025,"проезд Корабельная, 9",,АИ-100:98%(green) | АИ-92:28%(yellow) | АИ-95:62%(green) | ДТ:98%(green) | ДТ+:39%(yellow)
142,АЗС Юг,,Запорожская область,critical,47.829824,36.019308,"пр-т Дзержинского, 75",,Газ:98%(green) | ДТ:69%(green) | ДТ+:10%(red)
144,Восток-Ресурс,,Запорожская область,critical,47.934275,35.211252,"проезд Кирова, 207",,АИ-100:65%(green) | АИ-92:33%(yellow) | ДТ:41%(yellow) | ДТ+:11%(red)
146,Роснефть,,Запорожская область,critical,48.058285,34.899438,"пер. Октябрьская, 179",,АИ-100:44%(yellow) | АИ-95:59%(yellow) | АИ-95+:14%(red) | Газ:92%(green) | ДТ+:78%(green)
147,Восток-Ресурс,,Запорожская область,critical,47.837792,35.244397,"пр-т Заводская, 81",,АИ-92:95%(green) | АИ-95:9%(red) | ДТ:18%(red) | ДТ+:81%(green)
148,АЗС Юг,,Запорожская область,critical,47.626768,35.117741,"бульв. Полевая, 66",,АИ-100:59%(yellow) | Газ:94%(green) | ДТ:1%(red) | ДТ+:82%(green)
149,Роснефть,,Запорожская область,critical,47.922975,34.826362,"проезд Советская, 196",,АИ-100:69%(green) | АИ-95:92%(green) | ДТ+:28%(yellow)
152,Роснефть,,Запорожская область,critical,47.549844,35.437646,"ш. Нахимова, 230",,АИ-100:36%(yellow) | АИ-92:64%(green) | АИ-95:42%(yellow) | ДТ:10%(red) | ДТ+:18%(red)
153,Восток-Ресурс,,Запорожская область,critical,47.64574,35.978833,"проезд Береговая, 238",,АИ-95:59%(yellow) | АИ-95+:84%(green) | ДТ:68%(green)
155,Роснефть,,Запорожская область,critical,47.784419,34.839465,"пр-т Транспортная, 183",,АИ-100:42%(yellow) | АИ-95:60%(green) | АИ-95+:65%(green) | Газ:88%(green) | ДТ+:14%(red)
156,Восток-Ресурс,,Запорожская область,critical,47.563685,34.875598,"ул. Рабочая, 142",,АИ-95+:23%(red) | Газ:84%(green) | ДТ:0%(red)
157,АЗС Юг,,Запорожская область,critical,47.629156,34.988291,"пер. Пушкина, 36",,АИ-100:29%(yellow) | АИ-95:40%(yellow) | АИ-95+:87%(green) | Газ:79%(green)
159,АЗС Юг,,Херсонская область,critical,46.391448,33.62042,"пер. Октябрьская, 84",,АИ-100:59%(yellow) | АИ-92:89%(green) | АИ-95+:6%(red) | Газ:95%(green)
160,Восток-Ресурс,,Херсонская область,critical,46.897686,33.879435,"ул. Шоссейная, 173",,АИ-95:69%(green) | АИ-95+:98%(green) | Газ:50%(yellow) | ДТ+:12%(red)
161,Таврия-Ойл,,Херсонская область,critical,47.023496,33.952304,"пер. Гагарина, 203",,АИ-92:85%(green) | Газ:99%(green) | ДТ:47%(yellow) | ДТ+:75%(green)
163,Восток-Ресурс,,Херсонская область,critical,46.216069,34.087285,"пр-т Рабочая, 80",,АИ-100:66%(green) | АИ-95:53%(yellow) | Газ:67%(green) | ДТ:79%(green)
164,Таврия-Ойл,,Херсонская область,critical,46.74797,33.586565,"пр-т Октябрьская, 133",,АИ-95:85%(green) | АИ-95+:36%(yellow) | ДТ:54%(yellow)
166,Восток-Ресурс,,Херсонская область,critical,46.627715,33.514306,"бульв. Транспортная, 157",,АИ-92:79%(green) | АИ-95+:18%(red) | Газ:68%(green) | ДТ:19%(red)
168,АЗС Юг,,Херсонская область,critical,46.71941,33.944492,"ул. Ленинградская, 35",,АИ-100:56%(yellow) | Газ:56%(yellow) | ДТ:53%(yellow)
172,Восток-Ресурс,,Херсонская область,critical,46.367343,33.930232,"проезд Нахимова, 35",,АИ-92:80%(green) | АИ-95:12%(red) | АИ-95+:24%(red) | ДТ:42%(yellow)
173,Таврия-Ойл,,Херсонская область,critical,46.551992,33.503893,"ул. Береговая, 132",,АИ-100:47%(yellow) | АИ-95:17%(red) | АИ-95+:60%(green) | Газ:89%(green) | ДТ+:23%(red)
174,Роснефть,,Белгородская область,critical,51.074503,37.449695,"пер. Южная, 83",,АИ-95:89%(green) | АИ-95+:56%(yellow) | ДТ:21%(red) | ДТ+:1%(red)
175,Лукойл,,Белгородская область,critical,51.043546,36.115967,"пер. Ленина, 246",,АИ-95:77%(green) | АИ-95+:35%(yellow) | Газ:83%(green) | ДТ+:83%(green)
176,Газпромнефть,,Белгородская область,critical,50.800483,37.251977,"пр-т Автозаводская, 168",,АИ-92:74%(green) | Газ:53%(yellow) | ДТ+:64%(green)
177,Роснефть,,Белгородская область,critical,50.856478,37.434218,"пер. Горького, 123",,АИ-100:83%(green) | АИ-92:4%(red) | АИ-95:3%(red)
178,Лукойл,,Белгородская область,critical,50.950694,37.548995,"проезд Кирова, 18",,АИ-100:66%(green) | АИ-92:34%(yellow) | АИ-95:38%(yellow) | Газ:19%(red) | ДТ:38%(yellow)
179,Газпромнефть,,Белгородская область,critical,50.771659,36.568064,"пер. Лесная, 203",,АИ-92:22%(red) | АИ-95:98%(green) | АИ-95+:43%(yellow)
180,Роснефть,,Белгородская область,critical,50.464357,37.013854,"пр-т Береговая, 76",,АИ-100:0%(red) | АИ-92:100%(green) | АИ-95:58%(yellow) | Газ:96%(green) | ДТ:10%(red)
181,Лукойл,,Белгородская область,critical,50.737085,36.145541,"пер. Мира, 5",,АИ-92:12%(red) | АИ-95:2%(red) | АИ-95+:13%(red) | Газ:57%(yellow) | ДТ+:59%(yellow)
182,Газпромнефть,,Белгородская область,critical,50.366878,35.958043,"пр-т Кирова, 138",,АИ-100:40%(yellow) | АИ-92:3%(red) | АИ-95+:28%(yellow) | ДТ:65%(green)
183,Роснефть,,Белгородская область,critical,50.395554,37.215801,"проезд Ленина, 42",,АИ-95+:68%(green) | Газ:0%(red) | ДТ:8%(red) | ДТ+:3%(red)
184,Лукойл,,Белгородская область,critical,50.517584,35.927744,"проезд Мира, 128",,АИ-100:32%(yellow) | АИ-92:18%(red) | АИ-95+:41%(yellow) | ДТ:5%(red)
185,Газпромнефть,,Белгородская область,critical,50.33523,37.525857,"пр-т Гагарина, 121",,АИ-100:51%(yellow) | АИ-92:64%(green) | АИ-95:75%(green) | ДТ+:45%(yellow)
186,Роснефть,,Белгородская область,critical,50.701633,37.603882,"пр-т Центральная, 206",,АИ-100:95%(green) | АИ-92:9%(red) | АИ-95:23%(red) | Газ:48%(yellow) | ДТ+:96%(green)
187,Лукойл,,Белгородская область,critical,50.594619,37.743715,"пр-т Октябрьская, 39",,АИ-100:25%(yellow) | АИ-92:0%(red) | АИ-95:12%(red)
188,Газпромнефть,,Белгородская область,critical,50.464155,37.766231,"пер. Ленинградская, 247",,АИ-95:74%(green) | АИ-95+:48%(yellow) | ДТ+:16%(red)
189,Роснефть,,Белгородская область,critical,50.764617,36.810856,"проезд Береговая, 20",,АИ-100:23%(red) | АИ-92:12%(red) | АИ-95:88%(green) | ДТ:80%(green) | ДТ+:64%(green)
190,Роснефть,,Курская область,critical,52.001943,36.452474,"пр-т Нахимова, 43",,АИ-100:38%(yellow) | АИ-92:79%(green) | АИ-95+:54%(yellow) | Газ:67%(green)
191,Газпромнефть,,Курская область,critical,52.052332,35.990029,"ул. Октябрьская, 248",,АИ-100:71%(green) | АИ-92:17%(red) | АИ-95+:7%(red) | ДТ:85%(green)
192,Лукойл,,Курская область,critical,51.391717,36.828858,"ул. Ленина, 16",,АИ-100:2%(red) | АИ-95:30%(yellow) | Газ:41%(yellow)
193,Роснефть,,Курская область,critical,51.477975,36.562776,"пр-т Строителей, 232",,АИ-100:49%(yellow) | АИ-92:96%(green) | Газ:50%(yellow) | ДТ+:36%(yellow)
194,Газпромнефть,,Курская область,critical,52.117474,35.894967,"пер. Кирова, 9",,АИ-95:51%(yellow) | АИ-95+:93%(green) | Газ:77%(green) | ДТ:55%(yellow) | ДТ+:94%(green)
195,Лукойл,,Курская область,critical,52.003724,36.046402,"бульв. Ленинградская, 89",,АИ-100:90%(green) | АИ-92:3%(red) | АИ-95+:77%(green) | ДТ:98%(green) | ДТ+:39%(yellow)
196,Роснефть,,Курская область,critical,51.539874,36.869313,"проезд Советская, 196",,АИ-100:97%(green) | АИ-95+:82%(green) | ДТ:5%(red)
197,Газпромнефть,,Курская область,critical,52.152803,36.414492,"бульв. Морская, 215",,АИ-100:99%(green) | АИ-95:90%(green) | АИ-95+:74%(green) | ДТ:63%(green)
198,Лукойл,,Курская область,critical,51.606683,35.719428,"ш. Советская, 6",,АИ-95:50%(yellow) | ДТ:16%(red) | ДТ+:2%(red)
199,Роснефть,,Курская область,critical,51.571589,35.645613,"пр-т Автозаводская, 203",,АИ-100:22%(red) | АИ-95:36%(yellow) | АИ-95+:7%(red) | ДТ:43%(yellow) | ДТ+:19%(red)
200,Газпромнефть,,Курская область,critical,51.955948,37.107819,"бульв. Береговая, 218",,АИ-100:65%(green) | АИ-92:96%(green) | АИ-95:91%(green) | АИ-95+:80%(green) | ДТ:64%(green)
201,Лукойл,,Курская область,critical,51.310256,35.777432,"проезд Мира, 90",,АИ-92:13%(red) | Газ:51%(yellow) | ДТ:49%(yellow) | ДТ+:49%(yellow)
202,Роснефть,,Курская область,critical,52.009857,36.4405,"проезд Центральная, 42",,АИ-92:66%(green) | АИ-95+:5%(red) | Газ:70%(green) | ДТ+:17%(red)
203,Газпромнефть,,Курская область,critical,51.834627,36.504561,"пер. Победы, 111",,АИ-100:59%(yellow) | АИ-92:66%(green) | АИ-95:73%(green) | Газ:78%(green) | ДТ:13%(red)
204,Лукойл,,Курская область,critical,51.814593,36.911738,"пр-т Советская, 93",,АИ-100:20%(red) | АИ-92:37%(yellow) | АИ-95+:73%(green)
205,Роснефть,,Курская область,critical,51.56263,35.547485,"ул. Новая, 201",,АИ-100:49%(yellow) | АИ-92:88%(green) | АИ-95+:53%(yellow) | Газ:84%(green)
206,Роснефть,,Воронежская область,critical,50.839363,39.037124,"ул. Кирова, 193",,АИ-100:15%(red) | АИ-92:49%(yellow) | АИ-95+:21%(red) | Газ:13%(red) | ДТ+:39%(yellow)
207,Лукойл,,Воронежская область,critical,50.948278,39.289609,"проезд Гагарина, 129",,АИ-92:87%(green) | АИ-95:87%(green) | Газ:70%(green) | ДТ:14%(red) | ДТ+:6%(red)
208,Газпромнефть,,Воронежская область,critical,51.751162,39.015773,"проезд Мира, 23",,АИ-100:25%(yellow) | АИ-95+:51%(yellow) | Газ:19%(red) | ДТ:16%(red)
209,ОПТИ,,Воронежская область,critical,50.724463,39.633188,"бульв. Нахимова, 237",,АИ-92:8%(red) | АИ-95+:56%(yellow) | ДТ:11%(red)
210,Роснефть,,Воронежская область,critical,50.7583,39.305948,"бульв. Береговая, 10",,АИ-92:91%(green) | АИ-95:79%(green) | АИ-95+:8%(red) | ДТ+:0%(red)
211,Лукойл,,Воронежская область,critical,50.701578,40.448439,"пер. Лесная, 69",,АИ-100:86%(green) | АИ-92:48%(yellow) | АИ-95:16%(red) | Газ:2%(red) | ДТ:24%(red)
212,Газпромнефть,,Воронежская область,critical,51.105078,40.061033,"бульв. Победы, 45",,АИ-92:8%(red) | АИ-95:83%(green) | Газ:89%(green)
213,ОПТИ,,Воронежская область,critical,51.25769,39.77082,"ул. Победы, 62",,АИ-100:15%(red) | АИ-95:22%(red) | Газ:76%(green) | ДТ:47%(yellow)
214,Роснефть,,Воронежская область,critical,50.541176,38.599302,"бульв. Садовая, 220",,АИ-95:25%(yellow) | Газ:33%(yellow) | ДТ+:86%(green)
215,Лукойл,,Воронежская область,critical,51.701297,38.94754,"бульв. Новая, 183",,АИ-100:12%(red) | АИ-95:48%(yellow) | АИ-95+:58%(yellow) | ДТ:25%(yellow) | ДТ+:38%(yellow)
216,Газпромнефть,,Воронежская область,critical,50.947714,38.716209,"ул. Полевая, 71",,АИ-92:43%(yellow) | АИ-95+:75%(green) | Газ:19%(red) | ДТ:26%(yellow) | ДТ+:45%(yellow)
217,ОПТИ,,Воронежская область,critical,51.106898,39.973464,"бульв. Морская, 88",,АИ-100:90%(green) | АИ-95:21%(red) | АИ-95+:76%(green) | ДТ:5%(red) | ДТ+:44%(yellow)
218,Роснефть,,Воронежская область,critical,51.920385,40.299182,"проезд Строителей, 57",,АИ-100:29%(yellow) | АИ-95:10%(red) | АИ-95+:32%(yellow) | ДТ+:43%(yellow)
219,Лукойл,,Воронежская область,critical,51.250716,40.234996,"пер. Новая, 106",,АИ-95:54%(yellow) | Газ:10%(red) | ДТ+:71%(green)
220,Газпромнефть,,Воронежская область,critical,50.998944,40.473281,"ш. Советская, 2",,АИ-95:87%(green) | АИ-95+:30%(yellow) | ДТ:55%(yellow) | ДТ+:50%(yellow)
221,Роснефть,,Брянская область,critical,52.333953,33.198829,"ш. Ленина, 229",,АИ-92:44%(yellow) | АИ-95:66%(green) | Газ:40%(yellow) | ДТ:82%(green)
222,Газпромнефть,,Брянская область,critical,53.041459,33.396405,"ш. Варшавская, 187",,АИ-100:85%(green) | АИ-95+:37%(yellow) | Газ:15%(red) | ДТ:10%(red) | ДТ+:74%(green)
223,Роснефть,,Брянская область,critical,52.960669,33.979386,"пр-т Корабельная, 94",,АИ-100:67%(green) | АИ-92:26%(yellow) | АИ-95+:49%(yellow) | ДТ:76%(green) | ДТ+:28%(yellow)
224,Газпромнефть,,Брянская область,critical,52.484945,34.17148,"ул. Новая, 108",,АИ-100:37%(yellow) | АИ-92:33%(yellow) | АИ-95+:66%(green) | ДТ:32%(yellow) | ДТ+:31%(yellow)
225,Роснефть,,Брянская область,critical,53.175808,33.515844,"пер. Промышленная, 42",,АИ-100:60%(green) | АИ-95:65%(green) | ДТ:55%(yellow)
226,Газпромнефть,,Брянская область,critical,52.43423,32.980165,"бульв. Мира, 186",,АИ-100:45%(yellow) | АИ-92:63%(green) | АИ-95:9%(red) | АИ-95+:71%(green) | ДТ:32%(yellow)
227,Роснефть,,Брянская область,critical,52.308705,33.076789,"проезд Пушкина, 85",,АИ-100:46%(yellow) | АИ-92:84%(green) | АИ-95+:54%(yellow) | ДТ:85%(green)
228,Газпромнефть,,Брянская область,critical,52.883962,34.393819,"ул. Горького, 179",,АИ-100:68%(green) | АИ-92:53%(yellow) | АИ-95:84%(green) | АИ-95+:56%(yellow) | Газ:19%(red)
229,Роснефть,,Брянская область,critical,52.696619,32.926672,"проезд Лесная, 4",,АИ-95:49%(yellow) | АИ-95+:95%(green) | Газ:16%(red) | ДТ:40%(yellow) | ДТ+:31%(yellow)
230,Газпромнефть,,Брянская область,critical,52.879059,33.113855,"пер. Ленинградская, 223",,АИ-100:74%(green) | АИ-92:77%(green) | АИ-95+:49%(yellow)
231,Роснефть,,Брянская область,critical,52.5115,33.718189,"бульв. Московская, 23",,АИ-100:0%(red) | АИ-92:95%(green) | АИ-95+:86%(green) | Газ:65%(green)
232,Газпромнефть,,Брянская область,critical,52.806099,34.109192,"пер. Полевая, 94",,АИ-100:3%(red) | АИ-95:48%(yellow) | Газ:99%(green)
233,Роснефть,,Брянская область,critical,52.301977,33.510278,"проезд Промышленная, 141",,АИ-100:72%(green) | АИ-92:67%(green) | АИ-95+:51%(yellow) | ДТ:12%(red) | ДТ+:99%(green)
234,Газпромнефть,,Брянская область,critical,52.981434,32.893001,"проезд Корабельная, 198",,АИ-100:0%(red) | АИ-95:15%(red) | ДТ:52%(yellow) | ДТ+:28%(yellow)
235,Роснефть,,Орловская область,critical,53.022636,35.760475,"пр-т Нахимова, 100",,АИ-100:14%(red) | АИ-95:4%(red) | АИ-95+:46%(yellow) | Газ:8%(red) | ДТ:22%(red)
236,Газпромнефть,,Орловская область,critical,53.030013,36.62264,"ш. Лесная, 183",,АИ-92:45%(yellow) | АИ-95:20%(red) | Газ:5%(red) | ДТ:43%(yellow) | ДТ+:33%(yellow)
237,Роснефть,,Орловская область,critical,52.906052,36.374209,"проезд Шоссейная, 173",,АИ-100:70%(green) | АИ-92:21%(red) | АИ-95+:37%(yellow) | Газ:26%(yellow) | ДТ:28%(yellow)
238,Газпромнефть,,Орловская область,critical,53.155444,36.535892,"ш. Садовая, 193",,АИ-100:17%(red) | АИ-92:23%(red) | АИ-95+:39%(yellow) | Газ:57%(yellow) | ДТ+:22%(red)
239,Роснефть,,Орловская область,critical,53.233836,36.081332,"проезд Лесная, 248",,АИ-92:14%(red) | АИ-95:59%(yellow) | АИ-95+:20%(red) | Газ:20%(red) | ДТ:6%(red)
240,Газпромнефть,,Орловская область,critical,52.803933,36.97518,"ул. Красная, 247",,АИ-92:97%(green) | ДТ:76%(green) | ДТ+:52%(yellow)
241,Роснефть,,Орловская область,critical,52.697507,36.564534,"пр-т Гагарина, 40",,АИ-92:80%(green) | АИ-95+:57%(yellow) | Газ:36%(yellow) | ДТ:47%(yellow)
242,Газпромнефть,,Орловская область,critical,52.888772,36.105126,"ш. Центральная, 227",,АИ-95+:19%(red) | Газ:25%(yellow) | ДТ+:38%(yellow)
243,Роснефть,,Орловская область,critical,52.801101,36.856745,"бульв. Октябрьская, 246",,АИ-100:0%(red) | АИ-95+:59%(yellow) | ДТ+:3%(red)
244,Газпромнефть,,Орловская область,critical,52.862878,36.263103,"пер. Гагарина, 76",,АИ-100:31%(yellow) | АИ-92:21%(red) | АИ-95:94%(green) | АИ-95+:29%(yellow) | ДТ:100%(green)
245,Роснефть,,Орловская область,critical,52.981905,36.909627,"проезд Кирова, 7",,АИ-92:74%(green) | АИ-95+:17%(red) | ДТ:13%(red) | ДТ+:71%(green)
246,Газпромнефть,,Орловская область,critical,52.967196,36.149538,"ул. Транспортная, 173",,АИ-92:64%(green) | Газ:57%(yellow) | ДТ:97%(green)
247,Роснефть,,Орловская область,critical,53.108203,35.952026,"ул. Промышленная, 196",,АИ-100:74%(green) | АИ-92:17%(red) | Газ:85%(green) | ДТ+:100%(green)
248,Газпромнефть,,Орловская область,critical,53.00956,36.871253,"проезд Заводская, 246",,АИ-95:30%(yellow) | Газ:50%(yellow) | ДТ:60%(green)
249,Роснефть,,Новгородская область,critical,58.647615,32.787802,"ш. Садовая, 106",,АИ-92:29%(yellow) | АИ-95:28%(yellow) | Газ:76%(green) | ДТ:71%(green) | ДТ+:17%(red)
250,Газпромнефть,,Новгородская область,critical,57.950963,31.234319,"бульв. Ленинградская, 244",,АИ-92:44%(yellow) | АИ-95:10%(red) | АИ-95+:64%(green) | ДТ+:46%(yellow)
251,Роснефть,,Новгородская область,critical,58.393607,32.576939,"пер. Пушкина, 2",,АИ-100:14%(red) | АИ-95:4%(red) | АИ-95+:44%(yellow) | Газ:46%(yellow)
252,Газпромнефть,,Новгородская область,critical,57.846078,32.134581,"ш. Горького, 229",,АИ-100:94%(green) | АИ-92:38%(yellow) | АИ-95:20%(red) | АИ-95+:97%(green) | ДТ:17%(red)
253,Роснефть,,Новгородская область,critical,58.112146,31.291275,"бульв. Промышленная, 35",,АИ-100:36%(yellow) | АИ-92:4%(red) | Газ:35%(yellow) | ДТ:25%(yellow)
254,Газпромнефть,,Новгородская область,critical,58.624806,32.866186,"ул. Центральная, 195",,АИ-92:48%(yellow) | АИ-95:73%(green) | АИ-95+:54%(yellow) | ДТ:1%(red)
255,Роснефть,,Новгородская область,critical,58.585231,31.94702,"ш. Северная, 149",,АИ-100:7%(red) | АИ-95:49%(yellow) | Газ:47%(yellow) | ДТ:29%(yellow) | ДТ+:11%(red)
256,Газпромнефть,,Новгородская область,critical,58.842041,30.814515,"пр-т Московская, 43",,АИ-92:71%(green) | АИ-95+:3%(red) | ДТ:98%(green)
257,Роснефть,,Новгородская область,critical,58.735642,32.384562,"пер. Профсоюзная, 123",,АИ-100:100%(green) | АИ-95:97%(green) | ДТ:62%(green)
258,Газпромнефть,,Новгородская область,critical,58.847117,31.123103,"пр-т Северная, 237",,АИ-100:78%(green) | Газ:6%(red) | ДТ:20%(red)
259,Роснефть,,Новгородская область,critical,58.814223,31.175247,"пер. Кирова, 204",,АИ-92:72%(green) | АИ-95:19%(red) | АИ-95+:33%(yellow) | Газ:10%(red) | ДТ:39%(yellow)
260,Газпромнефть,,Новгородская область,critical,58.558115,32.618331,"бульв. Нахимова, 46",,АИ-92:24%(red) | Газ:17%(red) | ДТ:68%(green) | ДТ+:52%(yellow)
261,Роснефть,,Псковская область,critical,57.392604,27.904252,"бульв. Автозаводская, 59",,АИ-100:39%(yellow) | АИ-92:94%(green) | АИ-95+:2%(red) | Газ:41%(yellow)
262,Лукойл,,Псковская область,critical,57.102434,29.501957,"ул. Корабельная, 134",,АИ-100:45%(yellow) | АИ-95:97%(green) | ДТ+:31%(yellow)
263,Роснефть,,Псковская область,critical,58.167963,28.816548,"ш. Южная, 175",,АИ-100:18%(red) | АИ-95:41%(yellow) | Газ:95%(green) | ДТ:85%(green)
264,Лукойл,,Псковская область,critical,56.990537,28.351451,"проезд Пушкина, 26",,АИ-100:28%(yellow) | АИ-95+:100%(green) | ДТ:19%(red)
265,Роснефть,,Псковская область,critical,58.117209,28.932005,"бульв. Автозаводская, 23",,АИ-95:12%(red) | АИ-95+:62%(green) | Газ:58%(yellow)
266,Лукойл,,Псковская область,critical,56.891941,29.65666,"пр-т Ленинградская, 113",,АИ-95:62%(green) | ДТ:39%(yellow) | ДТ+:16%(red)
267,Роснефть,,Псковская область,critical,56.857698,28.374216,"ул. Пушкина, 23",,АИ-100:29%(yellow) | АИ-95+:17%(red) | Газ:37%(yellow) | ДТ+:95%(green)
268,Лукойл,,Псковская область,critical,58.34126,28.463619,"бульв. Морская, 117",,АИ-92:57%(yellow) | АИ-95:8%(red) | АИ-95+:67%(green) | ДТ:31%(yellow)
269,Роснефть,,Псковская область,critical,57.910707,30.118533,"бульв. Профсоюзная, 198",,АИ-100:100%(green) | АИ-95+:41%(yellow) | Газ:26%(yellow)
270,Лукойл,,Псковская область,critical,58.080258,28.789822,"ш. Ленина, 180",,АИ-100:96%(green) | АИ-92:47%(yellow) | АИ-95:46%(yellow) | АИ-95+:71%(green)
271,Газпромнефть,,г. Москва и Новая Москва,standard,55.900434,37.66233,"пр-т Ленинградская, 189",,АИ-95:6%(red) | Газ:47%(yellow) | ДТ+:75%(green)
272,Лукойл,,г. Москва и Новая Москва,standard,55.594355,37.208866,"проезд Ленинградская, 158",,АИ-92:18%(red) | Газ:48%(yellow) | ДТ:56%(yellow)
273,Роснефть,,г. Москва и Новая Москва,standard,55.617663,37.723197,"бульв. Южная, 102",,АИ-95:82%(green) | Газ:87%(green) | ДТ:94%(green)
274,Татнефть,,г. Москва и Новая Москва,standard,55.803945,37.2811,"ул. Варшавская, 81",,АИ-100:90%(green) | АИ-92:83%(green) | АИ-95:76%(green) | АИ-95+:10%(red) | Газ:41%(yellow)
275,Teboil,,г. Москва и Новая Москва,standard,55.734545,37.307899,"проезд Заводская, 94",,АИ-100:66%(green) | АИ-95:40%(yellow) | АИ-95+:21%(red) | ДТ:49%(yellow)
276,Газпромнефть,,г. Москва и Новая Москва,standard,55.846014,37.703907,"пер. Ленина, 46",,АИ-100:44%(yellow) | АИ-95:96%(green) | АИ-95+:28%(yellow) | ДТ:66%(green)
277,Лукойл,,г. Москва и Новая Москва,standard,55.72632,37.622397,"пер. Полевая, 67",,АИ-95+:86%(green) | Газ:59%(yellow) | ДТ:98%(green) | ДТ+:96%(green)
278,Роснефть,,г. Москва и Новая Москва,standard,55.68139,37.654895,"пер. Московская, 228",,АИ-100:69%(green) | АИ-95+:46%(yellow) | ДТ:20%(red)
279,Татнефть,,г. Москва и Новая Москва,standard,55.776555,37.45358,"ул. Строителей, 42",,АИ-95:50%(yellow) | АИ-95+:88%(green) | ДТ:58%(yellow) | ДТ+:48%(yellow)
280,Teboil,,г. Москва и Новая Москва,standard,55.611908,37.790659,"пр-т Октябрьская, 170",,АИ-92:61%(green) | АИ-95:58%(yellow) | Газ:90%(green) | ДТ+:66%(green)
281,Газпромнефть,,г. Москва и Новая Москва,standard,55.647107,37.266456,"проезд Транспортная, 80",,АИ-95:68%(green) | АИ-95+:82%(green) | ДТ+:70%(green)
282,Лукойл,,г. Москва и Новая Москва,standard,55.722862,37.803174,"ш. Московская, 35",,АИ-100:74%(green) | АИ-95:100%(green) | АИ-95+:53%(yellow) | Газ:82%(green) | ДТ:52%(yellow)
283,Роснефть,,г. Москва и Новая Москва,standard,55.702515,37.266788,"ул. Ленина, 134",,АИ-100:87%(green) | АИ-95+:91%(green) | Газ:15%(red)
284,Татнефть,,г. Москва и Новая Москва,standard,55.63555,37.155413,"ш. Морская, 106",,АИ-100:49%(yellow) | АИ-95:87%(green) | АИ-95+:42%(yellow) | Газ:39%(yellow) | ДТ:58%(yellow)
285,Teboil,,г. Москва и Новая Москва,standard,55.849259,37.459678,"ул. Красная, 35",,АИ-100:63%(green) | АИ-92:99%(green) | ДТ:0%(red) | ДТ+:80%(green)
286,Газпромнефть,,г. Москва и Новая Москва,standard,55.654382,37.243779,"пер. Ленина, 60",,АИ-100:14%(red) | АИ-92:91%(green) | АИ-95:86%(green)
287,Лукойл,,г. Москва и Новая Москва,standard,55.579683,37.712927,"пр-т Советская, 69",,АИ-100:75%(green) | АИ-92:76%(green) | АИ-95:88%(green) | ДТ:25%(yellow)
288,Роснефть,,г. Москва и Новая Москва,standard,55.623697,37.701492,"ул. Садовая, 122",,АИ-95:37%(yellow) | АИ-95+:58%(yellow) | Газ:90%(green) | ДТ+:27%(yellow)
289,Роснефть,,Московская область,standard,56.295486,36.871153,"ул. Октябрьская, 163",,АИ-92:25%(yellow) | АИ-95:18%(red) | АИ-95+:50%(yellow) | Газ:55%(yellow)
290,Лукойл,,Московская область,standard,56.156196,36.994889,"пер. Строителей, 176",,АИ-92:80%(green) | АИ-95:53%(yellow) | АИ-95+:59%(yellow) | ДТ:20%(red) | ДТ+:33%(yellow)
291,Газпромнефть,,Московская область,standard,56.033875,37.43267,"пр-т Северная, 231",,АИ-100:59%(yellow) | Газ:59%(yellow) | ДТ+:37%(yellow)
292,Татнефть,,Московская область,standard,56.098604,37.101298,"бульв. Пушкина, 18",,АИ-100:57%(yellow) | АИ-95:60%(green) | АИ-95+:71%(green) | ДТ:19%(red) | ДТ+:24%(red)
293,Роснефть,,Московская область,standard,56.081505,38.633158,"бульв. Транспортная, 49",,АИ-100:32%(yellow) | АИ-95:68%(green) | АИ-95+:62%(green) | ДТ:64%(green) | ДТ+:86%(green)
294,Лукойл,,Московская область,standard,55.728055,36.395014,"бульв. Транспортная, 169",,АИ-95+:30%(yellow) | Газ:29%(yellow) | ДТ:74%(green) | ДТ+:73%(green)
295,Газпромнефть,,Московская область,standard,55.541389,38.97391,"пер. Заводская, 204",,АИ-92:79%(green) | АИ-95+:3%(red) | Газ:74%(green) | ДТ:73%(green) | ДТ+:72%(green)
296,Татнефть,,Московская область,standard,55.855042,39.790013,"бульв. Шоссейная, 192",,Газ:89%(green) | ДТ:5%(red) | ДТ+:52%(yellow)
297,Роснефть,,Московская область,standard,55.602336,37.350051,"пр-т Московская, 239",,АИ-95+:100%(green) | Газ:59%(yellow) | ДТ:80%(green) | ДТ+:95%(green)
298,Лукойл,,Московская область,standard,56.442478,37.789999,"пер. Ленина, 186",,АИ-92:80%(green) | АИ-95+:79%(green) | ДТ:74%(green)
299,Газпромнефть,,Московская область,standard,56.378668,38.045086,"бульв. Кирова, 25",,АИ-100:83%(green) | АИ-95:79%(green) | АИ-95+:7%(red)
300,Татнефть,,Московская область,standard,55.853597,36.869749,"ул. Лесная, 203",,АИ-100:96%(green) | АИ-92:10%(red) | АИ-95:44%(yellow) | ДТ:63%(green)
301,Роснефть,,Московская область,standard,55.624783,39.471324,"пр-т Ленина, 163",,АИ-100:69%(green) | АИ-92:74%(green) | АИ-95:57%(yellow) | АИ-95+:85%(green) | ДТ+:24%(red)
302,Лукойл,,Московская область,standard,55.647904,39.145473,"пр-т Горького, 87",,АИ-100:76%(green) | АИ-92:68%(green) | ДТ:92%(green)
303,Газпромнефть,,Московская область,standard,55.838944,37.951444,"проезд Морская, 144",,АИ-92:82%(green) | АИ-95:86%(green) | Газ:82%(green) | ДТ:96%(green) | ДТ+:87%(green)
304,Татнефть,,Московская область,standard,55.253883,37.398866,"пер. Кирова, 113",,АИ-95:30%(yellow) | Газ:34%(yellow) | ДТ+:63%(green)
305,Роснефть,,Московская область,standard,56.303129,39.280536,"ул. Полевая, 178",,АИ-100:38%(yellow) | АИ-95+:73%(green) | ДТ+:93%(green)
306,Лукойл,,Московская область,standard,55.724539,38.919694,"пр-т Победы, 97",,АИ-92:60%(green) | АИ-95+:77%(green) | Газ:48%(yellow) | ДТ:42%(yellow) | ДТ+:72%(green)
307,Газпромнефть,,Московская область,standard,55.438743,39.533609,"пер. Центральная, 98",,АИ-100:93%(green) | АИ-92:89%(green) | АИ-95+:26%(yellow) | ДТ:91%(green) | ДТ+:71%(green)
308,Татнефть,,Московская область,standard,55.235508,37.38712,"ш. Рабочая, 161",,АИ-92:81%(green) | АИ-95:49%(yellow) | АИ-95+:8%(red) | ДТ:0%(red)
309,Роснефть,,Московская область,standard,55.205891,38.919559,"бульв. Центральная, 107",,АИ-100:68%(green) | АИ-95:94%(green) | ДТ:19%(red)
310,Лукойл,,Московская область,standard,56.293881,37.235994,"проезд Горького, 111",,АИ-95:69%(green) | ДТ:67%(green) | ДТ+:95%(green)
311,Газпромнефть,,Московская область,standard,56.320198,37.656161,"пер. Новая, 114",,АИ-92:47%(yellow) | АИ-95:39%(yellow) | АИ-95+:39%(yellow) | Газ:71%(green) | ДТ+:99%(green)
312,Татнефть,,Московская область,standard,55.20113,39.384553,"пер. Заводская, 48",,АИ-100:62%(green) | АИ-95:13%(red) | Газ:60%(green) | ДТ:72%(green)
313,Роснефть,,Московская область,standard,55.265617,39.818796,"пер. Ленинградская, 177",,АИ-100:49%(yellow) | АИ-95:50%(yellow) | Газ:62%(green) | ДТ+:59%(yellow)
314,Лукойл,,Московская область,standard,55.780974,37.806438,"ул. Октябрьская, 133",,АИ-100:28%(yellow) | АИ-92:79%(green) | АИ-95+:87%(green) | Газ:43%(yellow) | ДТ+:88%(green)
315,Газпромнефть,,Московская область,standard,56.378549,38.759812,"пр-т Варшавская, 213",,АИ-100:59%(yellow) | АИ-92:86%(green) | Газ:6%(red) | ДТ:61%(green) | ДТ+:97%(green)
316,Татнефть,,Московская область,standard,55.375123,38.76687,"проезд Пушкина, 184",,АИ-100:84%(green) | АИ-92:93%(green) | АИ-95+:70%(green) | Газ:57%(yellow) | ДТ+:35%(yellow)
317,Роснефть,,г. Санкт-Петербург,standard,60.046539,30.481336,"пр-т Кирова, 46",,АИ-100:71%(green) | АИ-92:53%(yellow) | АИ-95+:68%(green) | ДТ:0%(red) | ДТ+:41%(yellow)
318,Лукойл,,г. Санкт-Петербург,standard,59.949383,30.299321,"ул. Ленинградская, 61",,АИ-100:95%(green) | ДТ:88%(green) | ДТ+:98%(green)
319,Газпромнефть,,г. Санкт-Петербург,standard,59.983445,30.460061,"пр-т Советская, 48",,АИ-92:62%(green) | АИ-95+:65%(green) | ДТ+:44%(yellow)
320,ПТК,,г. Санкт-Петербург,standard,59.928409,30.139124,"проезд Промышленная, 157",,АИ-100:52%(yellow) | АИ-95:84%(green) | Газ:2%(red) | ДТ:45%(yellow) | ДТ+:48%(yellow)
321,Teboil,,г. Санкт-Петербург,standard,59.896137,30.117273,"проезд Южная, 85",,АИ-100:96%(green) | АИ-95:15%(red) | АИ-95+:80%(green) | ДТ:58%(yellow) | ДТ+:43%(yellow)
322,Роснефть,,г. Санкт-Петербург,standard,59.969537,30.361622,"пр-т Ленинградская, 134",,АИ-100:0%(red) | АИ-95:32%(yellow) | АИ-95+:38%(yellow) | Газ:89%(green) | ДТ+:78%(green)
323,Лукойл,,г. Санкт-Петербург,standard,59.831828,30.224825,"проезд Садовая, 3",,АИ-92:26%(yellow) | АИ-95:92%(green) | АИ-95+:81%(green) | ДТ:96%(green) | ДТ+:60%(green)
324,Газпромнефть,,г. Санкт-Петербург,standard,59.905934,30.218968,"проезд Профсоюзная, 235",,АИ-100:51%(yellow) | АИ-92:17%(red) | АИ-95:14%(red) | Газ:89%(green)
325,ПТК,,г. Санкт-Петербург,standard,59.966885,30.389099,"бульв. Победы, 54",,АИ-100:67%(green) | АИ-92:49%(yellow) | АИ-95+:84%(green) | Газ:35%(yellow) | ДТ+:61%(green)
326,Teboil,,г. Санкт-Петербург,standard,60.004558,30.185749,"ул. Ленинградская, 225",,АИ-100:83%(green) | АИ-95+:79%(green) | Газ:37%(yellow)
327,Роснефть,,г. Санкт-Петербург,standard,59.951559,30.449513,"бульв. Кирова, 49",,АИ-100:34%(yellow) | АИ-95+:33%(yellow) | ДТ:58%(yellow) | ДТ+:31%(yellow)
328,Лукойл,,г. Санкт-Петербург,standard,59.939436,30.406839,"бульв. Корабельная, 2",,АИ-92:62%(green) | Газ:38%(yellow) | ДТ:79%(green) | ДТ+:79%(green)
329,Газпромнефть,,г. Санкт-Петербург,standard,59.870062,30.188325,"ш. Московская, 172",,АИ-95:17%(red) | АИ-95+:60%(green) | ДТ+:73%(green)
330,ПТК,,г. Санкт-Петербург,standard,59.962835,30.185526,"проезд Промышленная, 147",,АИ-92:63%(green) | АИ-95:46%(yellow) | АИ-95+:90%(green)
331,Teboil,,г. Санкт-Петербург,standard,59.919736,30.09306,"пер. Красная, 181",,АИ-100:89%(green) | АИ-95:54%(yellow) | АИ-95+:30%(yellow) | ДТ:72%(green) | ДТ+:59%(yellow)
332,Роснефть,,г. Санкт-Петербург,standard,59.900702,30.372209,"пер. Профсоюзная, 60",,АИ-95:12%(red) | АИ-95+:45%(yellow) | ДТ:81%(green)
333,Роснефть,,Ленинградская область,standard,59.060528,30.401337,"ш. Профсоюзная, 119",,АИ-95+:57%(yellow) | Газ:66%(green) | ДТ:64%(green)
334,Газпромнефть,,Ленинградская область,standard,59.92195,30.862144,"пр-т Октябрьская, 141",,АИ-100:97%(green) | АИ-92:46%(yellow) | Газ:87%(green)
335,Лукойл,,Ленинградская область,standard,59.346171,31.178421,"проезд Ленинградская, 30",,АИ-100:66%(green) | АИ-92:63%(green) | АИ-95:68%(green) | АИ-95+:49%(yellow) | ДТ:85%(green)
336,Роснефть,,Ленинградская область,standard,60.321763,30.311898,"ш. Транспортная, 158",,АИ-100:44%(yellow) | АИ-95:13%(red) | АИ-95+:18%(red) | ДТ:92%(green) | ДТ+:47%(yellow)
337,Газпромнефть,,Ленинградская область,standard,59.255111,29.676739,"ш. Советская, 1",,АИ-92:50%(yellow) | АИ-95+:80%(green) | Газ:71%(green) | ДТ:97%(green) | ДТ+:94%(green)
338,Лукойл,,Ленинградская область,standard,59.376454,30.03838,"ш. Шоссейная, 40",,АИ-95:33%(yellow) | Газ:61%(green) | ДТ:86%(green) | ДТ+:91%(green)
339,Роснефть,,Ленинградская область,standard,60.246497,30.317577,"пер. Московская, 99",,АИ-100:94%(green) | АИ-92:27%(yellow) | АИ-95:40%(yellow) | Газ:42%(yellow)
340,Газпромнефть,,Ленинградская область,standard,60.409765,28.952657,"пер. Строителей, 37",,АИ-100:59%(yellow) | АИ-95+:29%(yellow) | Газ:44%(yellow) | ДТ:90%(green) | ДТ+:99%(green)
341,Лукойл,,Ленинградская область,standard,60.070067,28.543134,"пер. Дзержинского, 232",,АИ-100:41%(yellow) | АИ-95+:44%(yellow) | ДТ:78%(green) | ДТ+:62%(green)
342,Роснефть,,Ленинградская область,standard,60.156282,30.79144,"проезд Промышленная, 208",,АИ-100:76%(green) | АИ-92:8%(red) | АИ-95+:99%(green) | ДТ:64%(green) | ДТ+:67%(green)
343,Газпромнефть,,Ленинградская область,standard,60.477934,31.136623,"ш. Красная, 67",,АИ-100:34%(yellow) | АИ-92:40%(yellow) | АИ-95:4%(red) | Газ:51%(yellow) | ДТ:35%(yellow)
344,Лукойл,,Ленинградская область,standard,59.108652,29.557582,"ул. Советская, 43",,АИ-100:59%(yellow) | АИ-95+:69%(green) | Газ:84%(green) | ДТ+:87%(green)
345,Роснефть,,Ленинградская область,standard,60.854445,30.295282,"проезд Лесная, 247",,АИ-92:77%(green) | АИ-95:75%(green) | АИ-95+:50%(yellow) | Газ:41%(yellow) | ДТ+:42%(yellow)
346,Газпромнефть,,Ленинградская область,standard,60.355436,32.472859,"ш. Ленина, 173",,АИ-92:88%(green) | Газ:93%(green) | ДТ+:78%(green)
347,Лукойл,,Ленинградская область,standard,59.068084,30.977589,"ул. Садовая, 244",,АИ-92:36%(yellow) | АИ-95+:64%(green) | Газ:22%(red) | ДТ:78%(green) | ДТ+:96%(green)
348,Роснефть,,Ленинградская область,standard,60.538718,31.268886,"проезд Лесная, 66",,АИ-92:63%(green) | АИ-95+:76%(green) | Газ:49%(yellow)
349,Газпромнефть,,Ленинградская область,standard,59.138797,32.417688,"пр-т Береговая, 46",,АИ-100:31%(yellow) | АИ-92:22%(red) | АИ-95:62%(green) | Газ:96%(green) | ДТ+:53%(yellow)
350,Лукойл,,Ленинградская область,standard,59.297709,31.061341,"ул. Транспортная, 69",,АИ-100:85%(green) | АИ-95+:56%(yellow) | ДТ+:57%(yellow)
351,Роснефть,,Краснодарский край,standard,44.802315,40.862466,"пер. Корабельная, 146",,АИ-100:43%(yellow) | АИ-92:36%(yellow) | АИ-95+:30%(yellow) | Газ:81%(green) | ДТ+:89%(green)
352,Лукойл,,Краснодарский край,standard,45.477259,39.982202,"ш. Транспортная, 230",,АИ-95+:72%(green) | Газ:72%(green) | ДТ+:100%(green)
355,Роснефть,,Краснодарский край,standard,45.216484,39.846886,"ул. Морская, 110",,АИ-100:38%(yellow) | АИ-95+:36%(yellow) | Газ:96%(green) | ДТ+:80%(green)
357,Газпромнефть,,Краснодарский край,standard,44.805057,40.778411,"проезд Промышленная, 107",,АИ-100:75%(green) | АИ-92:30%(yellow) | АИ-95:19%(red) | Газ:58%(yellow) | ДТ:36%(yellow)
358,Газпром,,Краснодарский край,standard,45.09315,39.673131,"пр-т Корабельная, 136",,АИ-95+:38%(yellow) | Газ:72%(green) | ДТ:89%(green)
359,Роснефть,,Краснодарский край,standard,45.279671,40.905722,"пер. Ленинградская, 46",,АИ-92:76%(green) | Газ:89%(green) | ДТ+:43%(yellow)
360,Лукойл,,Краснодарский край,standard,45.318292,40.774584,"пр-т Пушкина, 202",,АИ-100:75%(green) | АИ-92:80%(green) | ДТ:45%(yellow)
363,Роснефть,,Краснодарский край,standard,45.420486,39.810908,"проезд Пушкина, 148",,АИ-100:40%(yellow) | АИ-92:87%(green) | АИ-95:54%(yellow) | АИ-95+:87%(green) | Газ:73%(green)
364,Лукойл,,Краснодарский край,standard,45.439628,40.694755,"пер. Гагарина, 11",,АИ-100:60%(green) | АИ-92:75%(green) | ДТ:31%(yellow) | ДТ+:90%(green)
365,Газпромнефть,,Краснодарский край,standard,44.892898,38.887371,"проезд Строителей, 5",,АИ-100:12%(red) | АИ-95:68%(green) | АИ-95+:54%(yellow) | ДТ+:23%(red)
366,Газпром,,Краснодарский край,standard,45.238768,40.111706,"ул. Мира, 99",,АИ-92:30%(yellow) | АИ-95:28%(yellow) | АИ-95+:59%(yellow) | Газ:46%(yellow) | ДТ:38%(yellow)
368,Лукойл,,Краснодарский край,standard,45.254327,40.21214,"бульв. Садовая, 193",,АИ-95:64%(green) | АИ-95+:88%(green) | Газ:87%(green) | ДТ:93%(green) | ДТ+:55%(yellow)
370,Газпром,,Краснодарский край,standard,45.005219,40.908724,"бульв. Горького, 122",,АИ-100:61%(green) | АИ-92:58%(yellow) | АИ-95+:51%(yellow) | Газ:7%(red)
371,Роснефть,,Краснодарский край,standard,45.252236,38.978919,"бульв. Московская, 118",,АИ-95:78%(green) | АИ-95+:28%(yellow) | ДТ:39%(yellow) | ДТ+:78%(green)
373,Роснефть,,Ростовская область,standard,47.276745,40.406218,"ул. Лесная, 89",,АИ-100:61%(green) | АИ-95+:17%(red) | ДТ:91%(green)
374,Лукойл,,Ростовская область,standard,48.391717,39.390133,"проезд Дзержинского, 85",,АИ-100:27%(yellow) | АИ-95+:67%(green) | Газ:95%(green) | ДТ:61%(green) | ДТ+:53%(yellow)
375,Газпромнефть,,Ростовская область,standard,48.261315,40.114932,"ул. Лесная, 15",,АИ-100:80%(green) | АИ-95:88%(green) | Газ:12%(red) | ДТ:30%(yellow) | ДТ+:65%(green)
376,ОПТИ,,Ростовская область,standard,48.36267,39.902662,"пр-т Автозаводская, 95",,АИ-92:2%(red) | АИ-95+:88%(green) | Газ:88%(green) | ДТ:51%(yellow)
377,Газпром,,Ростовская область,standard,47.245686,40.820002,"пер. Шоссейная, 36",,АИ-100:100%(green) | АИ-92:2%(red) | АИ-95:18%(red) | Газ:30%(yellow) | ДТ:93%(green)
378,Роснефть,,Ростовская область,standard,47.26234,40.1553,"бульв. Горького, 52",,АИ-100:44%(yellow) | АИ-95+:44%(yellow) | Газ:27%(yellow)
379,Лукойл,,Ростовская область,standard,47.33678,40.978049,"пр-т Северная, 77",,АИ-100:20%(red) | АИ-92:67%(green) | АИ-95+:56%(yellow) | Газ:43%(yellow) | ДТ+:91%(green)
380,Газпромнефть,,Ростовская область,standard,47.871599,40.413936,"ш. Профсоюзная, 250",,АИ-92:89%(green) | АИ-95:86%(green) | АИ-95+:4%(red) | Газ:63%(green) | ДТ+:63%(green)
381,ОПТИ,,Ростовская область,standard,47.434784,40.324031,"ул. Дзержинского, 50",,АИ-92:44%(yellow) | АИ-95:80%(green) | АИ-95+:69%(green) | Газ:97%(green) | ДТ:83%(green)
382,Газпром,,Ростовская область,standard,47.777256,39.932535,"пер. Шоссейная, 88",,АИ-92:72%(green) | АИ-95:58%(yellow) | ДТ+:32%(yellow)
383,Роснефть,,Ростовская область,standard,48.374047,39.291414,"пр-т Победы, 123",,АИ-95:67%(green) | АИ-95+:58%(yellow) | Газ:79%(green) | ДТ+:46%(yellow)
384,Лукойл,,Ростовская область,standard,48.285223,39.355898,"пр-т Новая, 33",,АИ-100:27%(yellow) | АИ-92:90%(green) | АИ-95:32%(yellow)
385,Газпромнефть,,Ростовская область,standard,47.049189,40.649472,"бульв. Советская, 121",,АИ-92:32%(yellow) | АИ-95+:60%(green) | ДТ+:6%(red)
386,ОПТИ,,Ростовская область,standard,48.005901,39.073148,"пр-т Южная, 243",,АИ-95:72%(green) | АИ-95+:31%(yellow) | Газ:25%(yellow) | ДТ:5%(red) | ДТ+:17%(red)
387,Газпром,,Ростовская область,standard,48.386348,41.301193,"проезд Профсоюзная, 94",,АИ-100:67%(green) | АИ-92:45%(yellow) | АИ-95:92%(green) | Газ:67%(green) | ДТ:49%(yellow)
388,Роснефть,,Ростовская область,standard,47.743724,39.903126,"ш. Гагарина, 22",,АИ-100:79%(green) | АИ-92:53%(yellow) | АИ-95+:87%(green) | Газ:86%(green)
389,Лукойл,,Ростовская область,standard,48.342132,41.006091,"проезд Заводская, 46",,АИ-100:30%(yellow) | АИ-92:85%(green) | ДТ+:93%(green)
390,Роснефть,,Ставропольский край,standard,44.885836,41.305166,"пр-т Мира, 94",,АИ-95:87%(green) | АИ-95+:50%(yellow) | ДТ:42%(yellow)
391,Лукойл,,Ставропольский край,standard,44.534146,43.000031,"пер. Ленинградская, 131",,АИ-100:68%(green) | АИ-92:63%(green) | АИ-95:91%(green) | ДТ:56%(yellow)
392,Газпром,,Ставропольский край,standard,44.573949,43.037613,"пр-т Новая, 160",,АИ-100:62%(green) | АИ-92:91%(green) | АИ-95:3%(red) | Газ:76%(green) | ДТ:94%(green)
393,Роснефть,,Ставропольский край,standard,44.471839,42.12901,"пер. Гагарина, 9",,АИ-95+:84%(green) | ДТ:5%(red) | ДТ+:68%(green)
394,Лукойл,,Ставропольский край,standard,44.853283,42.471661,"бульв. Профсоюзная, 122",,АИ-92:61%(green) | АИ-95:19%(red) | Газ:97%(green) | ДТ:43%(yellow) | ДТ+:33%(yellow)
395,Газпром,,Ставропольский край,standard,45.21433,42.751901,"проезд Полевая, 98",,АИ-100:63%(green) | АИ-95+:40%(yellow) | ДТ+:79%(green)
396,Роснефть,,Ставропольский край,standard,45.30341,41.343414,"пр-т Победы, 138",,АИ-100:45%(yellow) | АИ-92:90%(green) | ДТ:66%(green) | ДТ+:84%(green)
397,Лукойл,,Ставропольский край,standard,45.036296,41.617725,"пер. Дзержинского, 208",,АИ-95:64%(green) | АИ-95+:6%(red) | Газ:76%(green) | ДТ:59%(yellow) | ДТ+:96%(green)
398,Газпром,,Ставропольский край,standard,44.338829,43.228664,"ул. Нахимова, 152",,АИ-100:94%(green) | АИ-92:44%(yellow) | АИ-95+:82%(green) | ДТ:79%(green)
399,Роснефть,,Ставропольский край,standard,44.621471,41.753794,"бульв. Варшавская, 172",,АИ-92:100%(green) | АИ-95:89%(green) | АИ-95+:23%(red) | Газ:13%(red) | ДТ:99%(green)
400,Лукойл,,Ставропольский край,standard,44.546412,41.443231,"пр-т Новая, 217",,АИ-100:42%(yellow) | АИ-92:98%(green) | АИ-95:75%(green) | АИ-95+:35%(yellow)
401,Газпром,,Ставропольский край,standard,44.287874,41.73676,"ш. Варшавская, 125",,АИ-100:61%(green) | АИ-92:36%(yellow) | АИ-95:27%(yellow) | Газ:77%(green) | ДТ:15%(red)
402,Роснефть,,Ставропольский край,standard,45.289376,41.251789,"бульв. Новая, 222",,АИ-100:68%(green) | АИ-92:32%(yellow) | АИ-95+:96%(green)
403,Лукойл,,Ставропольский край,standard,44.377712,43.653695,"пр-т Корабельная, 198",,АИ-100:77%(green) | АИ-95:76%(green) | АИ-95+:6%(red) | ДТ:71%(green)
404,Газпром,,Ставропольский край,standard,44.800205,43.098853,"ул. Лесная, 140",,АИ-100:4%(red) | АИ-95:26%(yellow) | АИ-95+:27%(yellow) | ДТ+:83%(green)
405,Роснефть,,Ставропольский край,standard,44.379474,42.154071,"проезд Заводская, 232",,АИ-100:70%(green) | АИ-92:85%(green) | АИ-95:75%(green) | ДТ:8%(red) | ДТ+:20%(red)
406,Роснефть,,Нижегородская область,standard,56.109433,43.084704,"ул. Ленинградская, 121",,АИ-100:57%(yellow) | АИ-92:61%(green) | АИ-95+:86%(green) | Газ:45%(yellow) | ДТ:36%(yellow)
407,Лукойл,,Нижегородская область,standard,55.504614,43.500188,"ш. Лесная, 148",,АИ-92:68%(green) | АИ-95:51%(yellow) | ДТ+:45%(yellow)
408,Газпромнефть,,Нижегородская область,standard,56.810259,43.333775,"пр-т Лесная, 205",,АИ-100:61%(green) | АИ-92:18%(red) | АИ-95:84%(green) | АИ-95+:20%(red)
409,Татнефть,,Нижегородская область,standard,56.961191,43.495666,"проезд Пушкина, 13",,АИ-100:96%(green) | АИ-95+:89%(green) | Газ:93%(green) | ДТ:83%(green)
410,Роснефть,,Нижегородская область,standard,55.836726,43.507863,"ш. Промышленная, 192",,АИ-100:43%(yellow) | АИ-95:37%(yellow) | Газ:86%(green) | ДТ+:26%(yellow)
411,Лукойл,,Нижегородская область,standard,55.853228,44.127442,"пр-т Заводская, 150",,АИ-100:12%(red) | АИ-92:49%(yellow) | АИ-95:95%(green) | ДТ:41%(yellow) | ДТ+:80%(green)
412,Газпромнефть,,Нижегородская область,standard,55.999294,43.587104,"ш. Гагарина, 2",,АИ-100:71%(green) | АИ-95+:92%(green) | Газ:95%(green) | ДТ:21%(red)
413,Татнефть,,Нижегородская область,standard,56.816845,43.329799,"ш. Автозаводская, 37",,АИ-92:77%(green) | АИ-95:41%(yellow) | АИ-95+:52%(yellow) | Газ:76%(green)
414,Роснефть,,Нижегородская область,standard,56.153663,43.41246,"проезд Ленинградская, 196",,АИ-100:76%(green) | ДТ:69%(green) | ДТ+:71%(green)
415,Лукойл,,Нижегородская область,standard,56.200699,43.29006,"пер. Гагарина, 114",,АИ-100:78%(green) | Газ:70%(green) | ДТ:65%(green) | ДТ+:69%(green)
416,Газпромнефть,,Нижегородская область,standard,56.344871,44.657844,"пр-т Ленина, 135",,АИ-100:67%(green) | АИ-92:97%(green) | АИ-95:46%(yellow) | Газ:3%(red) | ДТ+:34%(yellow)
417,Татнефть,,Нижегородская область,standard,56.19035,44.769267,"пер. Варшавская, 161",,АИ-92:96%(green) | АИ-95+:63%(green) | ДТ:20%(red) | ДТ+:53%(yellow)
418,Роснефть,,Нижегородская область,standard,56.69722,44.8595,"бульв. Транспортная, 24",,АИ-100:91%(green) | АИ-95:85%(green) | АИ-95+:73%(green) | ДТ+:69%(green)
419,Лукойл,,Нижегородская область,standard,56.70953,43.775253,"проезд Горького, 92",,АИ-100:52%(yellow) | АИ-92:84%(green) | АИ-95:48%(yellow) | АИ-95+:96%(green) | ДТ:30%(yellow)
420,Газпромнефть,,Нижегородская область,standard,55.560657,43.854362,"пер. Центральная, 166",,АИ-100:68%(green) | АИ-92:44%(yellow) | АИ-95:15%(red) | Газ:58%(yellow) | ДТ+:65%(green)
421,Татнефть,,Республика Татарстан,standard,55.637071,50.42848,"ул. Дзержинского, 28",,АИ-100:41%(yellow) | АИ-92:92%(green) | АИ-95+:71%(green) | Газ:97%(green) | ДТ+:89%(green)
422,Роснефть,,Республика Татарстан,standard,54.666581,51.568644,"ш. Лесная, 151",,АИ-100:5%(red) | АИ-95:61%(green) | АИ-95+:3%(red) | Газ:41%(yellow) | ДТ+:65%(green)
423,Лукойл,,Республика Татарстан,standard,54.733357,49.101074,"пер. Варшавская, 178",,АИ-100:60%(green) | Газ:99%(green) | ДТ:30%(yellow) | ДТ+:85%(green)
424,Татнефть,,Республика Татарстан,standard,56.131936,50.936114,"пр-т Победы, 54",,АИ-100:61%(green) | АИ-95:79%(green) | Газ:34%(yellow) | ДТ+:59%(yellow)
425,Роснефть,,Республика Татарстан,standard,56.304831,51.085734,"пер. Ленинградская, 121",,АИ-100:50%(yellow) | Газ:78%(green) | ДТ:60%(green)
426,Лукойл,,Республика Татарстан,standard,56.458974,51.470157,"проезд Промышленная, 10",,АИ-100:63%(green) | Газ:87%(green) | ДТ:29%(yellow) | ДТ+:86%(green)
427,Татнефть,,Республика Татарстан,standard,55.489578,51.786376,"ш. Московская, 179",,АИ-92:88%(green) | АИ-95:74%(green) | АИ-95+:46%(yellow) | ДТ+:22%(red)
428,Роснефть,,Республика Татарстан,standard,56.266347,51.030483,"пер. Шоссейная, 214",,АИ-100:70%(green) | АИ-92:31%(yellow) | АИ-95+:33%(yellow) | Газ:30%(yellow) | ДТ+:43%(yellow)
429,Лукойл,,Республика Татарстан,standard,55.107304,49.233015,"ул. Победы, 92",,АИ-95:67%(green) | АИ-95+:57%(yellow) | ДТ:32%(yellow) | ДТ+:64%(green)
430,Татнефть,,Республика Татарстан,standard,55.472731,51.97782,"ш. Гагарина, 198",,АИ-92:31%(yellow) | АИ-95:32%(yellow) | АИ-95+:88%(green) | Газ:27%(yellow) | ДТ:19%(red)
431,Роснефть,,Республика Татарстан,standard,54.834093,48.913208,"пр-т Заводская, 41",,АИ-100:32%(yellow) | АИ-95+:4%(red) | Газ:24%(red) | ДТ:53%(yellow) | ДТ+:46%(yellow)
432,Лукойл,,Республика Татарстан,standard,56.169627,50.157822,"ш. Дзержинского, 44",,АИ-100:74%(green) | АИ-95+:75%(green) | Газ:93%(green)
433,Татнефть,,Республика Татарстан,standard,55.326819,49.932583,"пер. Заводская, 242",,АИ-100:58%(yellow) | АИ-92:85%(green) | АИ-95:2%(red)
434,Роснефть,,Республика Татарстан,standard,54.622937,51.157173,"проезд Кирова, 232",,АИ-92:95%(green) | АИ-95:19%(red) | АИ-95+:77%(green) | ДТ:47%(yellow) | ДТ+:23%(red)
435,Роснефть,,Самарская область,standard,53.307876,51.431638,"бульв. Московская, 179",,АИ-100:68%(green) | АИ-95:94%(green) | Газ:2%(red) | ДТ+:81%(green)
436,Лукойл,,Самарская область,standard,52.685639,51.155358,"бульв. Полевая, 194",,АИ-92:57%(yellow) | АИ-95:44%(yellow) | АИ-95+:41%(yellow) | ДТ:47%(yellow) | ДТ+:63%(green)
437,Татнефть,,Самарская область,standard,54.01312,52.324029,"пер. Новая, 147",,АИ-100:59%(yellow) | АИ-92:18%(red) | АИ-95:78%(green) | АИ-95+:39%(yellow) | ДТ:33%(yellow)
438,Башнефть,,Самарская область,standard,53.975025,49.815681,"бульв. Морская, 211",,АИ-100:30%(yellow) | АИ-92:87%(green) | АИ-95:15%(red) | Газ:64%(green)
439,Роснефть,,Самарская область,standard,53.552511,51.264718,"бульв. Береговая, 224",,АИ-100:51%(yellow) | Газ:91%(green) | ДТ:56%(yellow) | ДТ+:34%(yellow)
440,Лукойл,,Самарская область,standard,54.436064,51.039556,"бульв. Корабельная, 178",,АИ-100:48%(yellow) | АИ-92:51%(yellow) | Газ:3%(red)
441,Татнефть,,Самарская область,standard,53.239172,50.368772,"бульв. Кирова, 31",,АИ-95+:69%(green) | Газ:97%(green) | ДТ:6%(red) | ДТ+:79%(green)
442,Башнефть,,Самарская область,standard,53.477587,49.866984,"ш. Мира, 223",,АИ-100:88%(green) | Газ:12%(red) | ДТ:98%(green)
443,Роснефть,,Самарская область,standard,53.509528,50.882808,"пер. Московская, 39",,АИ-100:30%(yellow) | АИ-92:62%(green) | АИ-95:22%(red) | АИ-95+:85%(green) | ДТ:14%(red)
444,Лукойл,,Самарская область,standard,53.622089,49.871345,"бульв. Строителей, 50",,АИ-100:97%(green) | АИ-92:61%(green) | АИ-95:73%(green) | Газ:94%(green) | ДТ:61%(green)
445,Татнефть,,Самарская область,standard,54.113842,51.320564,"пер. Гагарина, 126",,АИ-100:76%(green) | АИ-95:66%(green) | АИ-95+:93%(green)
446,Башнефть,,Самарская область,standard,53.070703,50.048007,"ул. Кирова, 79",,АИ-92:86%(green) | АИ-95:66%(green) | АИ-95+:8%(red) | ДТ+:63%(green)
447,Роснефть,,Самарская область,standard,54.299003,49.655634,"пр-т Октябрьская, 127",,АИ-100:86%(green) | АИ-92:26%(yellow) | АИ-95:97%(green) | Газ:89%(green) | ДТ:29%(yellow)
448,Лукойл,,Самарская область,standard,54.025957,51.454653,"пр-т Новая, 146",,АИ-100:34%(yellow) | АИ-92:70%(green) | АИ-95:17%(red) | ДТ:59%(yellow)
449,Башнефть,,Республика Башкортостан,standard,53.502503,56.32326,"бульв. Промышленная, 168",,АИ-100:20%(red) | АИ-92:76%(green) | Газ:49%(yellow)
450,Роснефть,,Республика Башкортостан,standard,53.613712,57.695915,"бульв. Мира, 77",,АИ-100:42%(yellow) | АИ-92:45%(yellow) | ДТ+:6%(red)
451,Лукойл,,Республика Башкортостан,standard,54.153401,57.76347,"пер. Южная, 63",,АИ-100:21%(red) | АИ-95:25%(yellow) | АИ-95+:68%(green) | Газ:25%(yellow) | ДТ+:95%(green)
452,Башнефть,,Республика Башкортостан,standard,54.845329,57.936526,"проезд Мира, 138",,АИ-100:47%(yellow) | Газ:47%(yellow) | ДТ+:12%(red)
453,Роснефть,,Республика Башкортостан,standard,55.597864,58.059349,"ул. Корабельная, 119",,АИ-100:47%(yellow) | АИ-92:99%(green) | АИ-95:42%(yellow) | Газ:39%(yellow)
454,Лукойл,,Республика Башкортостан,standard,55.918241,54.18398,"пер. Садовая, 2",,АИ-100:72%(green) | Газ:77%(green) | ДТ+:56%(yellow)
455,Башнефть,,Республика Башкортостан,standard,54.970411,57.729867,"пр-т Северная, 239",,АИ-92:87%(green) | АИ-95:22%(red) | АИ-95+:54%(yellow) | Газ:26%(yellow) | ДТ:41%(yellow)
456,Роснефть,,Республика Башкортостан,standard,54.58137,58.975532,"ш. Корабельная, 175",,АИ-100:77%(green) | АИ-92:81%(green) | АИ-95+:60%(green) | Газ:17%(red) | ДТ:96%(green)
457,Лукойл,,Республика Башкортостан,standard,55.945239,56.119101,"ул. Октябрьская, 51",,АИ-92:46%(yellow) | АИ-95+:31%(yellow) | Газ:87%(green)
458,Башнефть,,Республика Башкортостан,standard,53.769602,55.191796,"ш. Советская, 211",,АИ-100:64%(green) | АИ-92:1%(red) | АИ-95:30%(yellow) | ДТ:53%(yellow)
459,Роснефть,,Республика Башкортостан,standard,55.797789,56.209592,"ш. Автозаводская, 17",,АИ-92:99%(green) | ДТ:39%(yellow) | ДТ+:84%(green)
460,Лукойл,,Республика Башкортостан,standard,54.4598,57.975823,"бульв. Нахимова, 87",,АИ-100:37%(yellow) | АИ-92:64%(green) | АИ-95+:4%(red) | ДТ:41%(yellow) | ДТ+:66%(green)
461,Башнефть,,Республика Башкортостан,standard,54.703498,57.104254,"пр-т Октябрьская, 36",,АИ-92:57%(yellow) | АИ-95:24%(red) | АИ-95+:97%(green)
462,Роснефть,,Тульская область,standard,53.647409,37.324747,"ш. Промышленная, 95",,АИ-95:72%(green) | Газ:28%(yellow) | ДТ:92%(green)
463,Газпромнефть,,Тульская область,standard,54.285264,37.380638,"проезд Профсоюзная, 178",,АИ-100:81%(green) | АИ-95+:1%(red) | Газ:39%(yellow) | ДТ:89%(green) | ДТ+:60%(green)
464,Роснефть,,Тульская область,standard,53.739019,38.048797,"ш. Транспортная, 53",,АИ-92:34%(yellow) | АИ-95:61%(green) | АИ-95+:72%(green) | ДТ+:48%(yellow)
465,Газпромнефть,,Тульская область,standard,53.699123,37.282972,"пр-т Северная, 185",,АИ-95:0%(red) | АИ-95+:61%(green) | ДТ:76%(green)
466,Роснефть,,Тульская область,standard,54.154869,38.30452,"ш. Садовая, 79",,АИ-95:19%(red) | АИ-95+:22%(red) | Газ:4%(red) | ДТ+:69%(green)
467,Газпромнефть,,Тульская область,standard,54.032555,37.980402,"ш. Автозаводская, 163",,АИ-92:94%(green) | ДТ:69%(green) | ДТ+:63%(green)
468,Роснефть,,Тульская область,standard,54.351503,38.446253,"пер. Садовая, 187",,АИ-100:92%(green) | Газ:92%(green) | ДТ:93%(green)
469,Газпромнефть,,Тульская область,standard,53.821823,37.435594,"проезд Профсоюзная, 184",,АИ-100:27%(yellow) | АИ-95+:72%(green) | Газ:79%(green) | ДТ:75%(green)
470,Роснефть,,Тульская область,standard,54.07137,38.390348,"ш. Северная, 141",,АИ-92:62%(green) | АИ-95:82%(green) | АИ-95+:99%(green)
471,Газпромнефть,,Тульская область,standard,53.951151,37.53526,"ш. Ленинградская, 82",,АИ-100:64%(green) | АИ-92:65%(green) | АИ-95:92%(green) | Газ:65%(green)
472,Роснефть,,Тульская область,standard,53.598409,36.921293,"ул. Морская, 86",,АИ-95+:98%(green) | Газ:24%(red) | ДТ+:77%(green)
473,Газпромнефть,,Тульская область,standard,53.508534,37.309106,"ш. Береговая, 243",,АИ-100:93%(green) | АИ-92:73%(green) | Газ:34%(yellow) | ДТ:7%(red)
474,Роснефть,,Тульская область,standard,54.22251,37.584382,"ул. Лесная, 217",,АИ-100:88%(green) | Газ:96%(green) | ДТ+:0%(red)
475,Газпромнефть,,Тульская область,standard,54.443354,36.816458,"проезд Рабочая, 87",,АИ-100:59%(yellow) | Газ:97%(green) | ДТ+:62%(green)
476,Лукойл,,Волгоградская область,standard,50.443108,45.485643,"бульв. Береговая, 98",,АИ-100:90%(green) | АИ-92:96%(green) | ДТ:20%(red)
477,Роснефть,,Волгоградская область,standard,48.428559,44.687214,"пр-т Гагарина, 212",,АИ-100:74%(green) | АИ-92:93%(green) | АИ-95:63%(green) | Газ:60%(green) | ДТ:84%(green)
478,Газпром,,Волгоградская область,standard,50.149268,44.027153,"пр-т Корабельная, 34",,АИ-100:73%(green) | АИ-92:96%(green) | Газ:90%(green) | ДТ:89%(green) | ДТ+:18%(red)
479,Лукойл,,Волгоградская область,standard,48.018608,43.35673,"ул. Береговая, 155",,АИ-95+:62%(green) | Газ:43%(yellow) | ДТ:14%(red)
480,Роснефть,,Волгоградская область,standard,49.750791,44.77912,"ш. Береговая, 157",,АИ-100:23%(red) | АИ-95:84%(green) | ДТ+:5%(red)
481,Газпром,,Волгоградская область,standard,49.746612,43.109161,"пр-т Южная, 226",,АИ-100:70%(green) | АИ-92:66%(green) | АИ-95:80%(green) | АИ-95+:83%(green) | ДТ:95%(green)
482,Лукойл,,Волгоградская область,standard,49.265161,44.155419,"ул. Варшавская, 98",,АИ-100:68%(green) | АИ-95:89%(green) | Газ:64%(green) | ДТ+:76%(green)
483,Роснефть,,Волгоградская область,standard,49.783954,44.094309,"пер. Южная, 216",,АИ-92:85%(green) | АИ-95:78%(green) | ДТ:60%(green)
484,Газпром,,Волгоградская область,standard,49.101645,43.444851,"проезд Гагарина, 229",,АИ-100:98%(green) | АИ-92:84%(green) | АИ-95:79%(green) | АИ-95+:40%(yellow) | ДТ:31%(yellow)
485,Лукойл,,Волгоградская область,standard,48.499964,43.040096,"ул. Ленина, 87",,АИ-92:27%(yellow) | Газ:35%(yellow) | ДТ+:66%(green)
486,Роснефть,,Волгоградская область,standard,48.26921,43.817854,"бульв. Морская, 160",,АИ-100:80%(green) | ДТ:73%(green) | ДТ+:85%(green)
487,Газпром,,Волгоградская область,standard,48.972967,44.14694,"ул. Южная, 167",,АИ-100:49%(yellow) | АИ-92:66%(green) | АИ-95:66%(green) | АИ-95+:98%(green) | ДТ+:35%(yellow)
488,Лукойл,,Волгоградская область,standard,48.438328,44.904291,"проезд Лесная, 218",,АИ-100:14%(red) | АИ-92:100%(green) | АИ-95+:57%(yellow) | ДТ:99%(green) | ДТ+:25%(yellow)
489,Роснефть,,Волгоградская область,standard,48.590991,44.071245,"пр-т Строителей, 16",,АИ-100:62%(green) | АИ-95+:84%(green) | Газ:98%(green)
490,Роснефть,,Астраханская область,standard,45.768534,46.793847,"ул. Шоссейная, 166",,АИ-92:75%(green) | АИ-95:39%(yellow) | АИ-95+:49%(yellow) | Газ:73%(green)
491,Лукойл,,Астраханская область,standard,45.867091,47.574456,"ул. Ленинградская, 18",,АИ-92:4%(red) | АИ-95:73%(green) | ДТ+:97%(green)
492,Газпром,,Астраханская область,standard,46.35248,47.167686,"пр-т Морская, 63",,АИ-95:88%(green) | АИ-95+:83%(green) | Газ:90%(green) | ДТ:6%(red)
493,Роснефть,,Астраханская область,standard,45.835532,47.10344,"бульв. Автозаводская, 195",,АИ-100:24%(red) | АИ-92:9%(red) | Газ:52%(yellow)
494,Лукойл,,Астраханская область,standard,46.605704,46.439248,"пер. Варшавская, 79",,АИ-100:37%(yellow) | АИ-95+:68%(green) | ДТ:72%(green) | ДТ+:92%(green)
495,Газпром,,Астраханская область,standard,46.309111,47.03955,"пер. Заводская, 99",,АИ-92:87%(green) | АИ-95+:62%(green) | ДТ:96%(green) | ДТ+:3%(red)
496,Роснефть,,Астраханская область,standard,46.519217,47.221555,"проезд Заводская, 179",,АИ-100:83%(green) | Газ:26%(yellow) | ДТ+:40%(yellow)
497,Лукойл,,Астраханская область,standard,46.710871,48.360663,"пр-т Северная, 64",,АИ-100:5%(red) | АИ-92:72%(green) | АИ-95:2%(red) | ДТ:49%(yellow) | ДТ+:97%(green)
498,Газпром,,Астраханская область,standard,46.883674,47.251617,"бульв. Транспортная, 151",,АИ-100:42%(yellow) | АИ-92:50%(yellow) | ДТ:25%(yellow) | ДТ+:47%(yellow)
499,Роснефть,,Астраханская область,standard,45.503157,46.174604,"проезд Шоссейная, 135",,АИ-100:92%(green) | АИ-95:14%(red) | АИ-95+:37%(yellow) | ДТ+:71%(green)
500,Лукойл,,Астраханская область,standard,45.901882,47.874789,"пр-т Северная, 231",,АИ-100:5%(red) | АИ-92:61%(green) | ДТ:77%(green) | ДТ+:65%(green)
501,Газпром,,Астраханская область,standard,46.470389,47.901334,"ул. Советская, 69",,АИ-92:42%(yellow) | ДТ:49%(yellow) | ДТ+:93%(green)
502,Лукойл,,Пермский край,standard,59.013823,57.313115,"ш. Заводская, 175",,АИ-100:85%(green) | АИ-95:10%(red) | АИ-95+:63%(green) | Газ:25%(yellow)
503,Роснефть,,Пермский край,standard,58.703818,58.107016,"ш. Октябрьская, 95",,АИ-100:83%(green) | Газ:23%(red) | ДТ:25%(yellow) | ДТ+:10%(red)
504,Газпромнефть,,Пермский край,standard,58.388612,57.320289,"пер. Строителей, 90",,АИ-100:72%(green) | АИ-92:22%(red) | Газ:68%(green) | ДТ+:58%(yellow)
505,Лукойл,,Пермский край,standard,58.102697,57.519186,"бульв. Варшавская, 44",,АИ-100:30%(yellow) | АИ-92:70%(green) | АИ-95:80%(green) | ДТ:61%(green)
506,Роснефть,,Пермский край,standard,58.060716,57.657525,"проезд Профсоюзная, 244",,АИ-100:49%(yellow) | АИ-92:46%(yellow) | АИ-95:29%(yellow) | Газ:23%(red) | ДТ+:18%(red)
507,Газпромнефть,,Пермский край,standard,58.784204,57.1857,"пер. Центральная, 58",,АИ-92:97%(green) | АИ-95+:23%(red) | Газ:18%(red) | ДТ:80%(green)
508,Лукойл,,Пермский край,standard,58.973836,56.432397,"бульв. Морская, 217",,АИ-100:98%(green) | АИ-95:10%(red) | АИ-95+:31%(yellow) | ДТ+:94%(green)
509,Роснефть,,Пермский край,standard,59.174433,56.999498,"пер. Кирова, 154",,АИ-92:73%(green) | АИ-95:67%(green) | АИ-95+:84%(green) | ДТ+:96%(green)
510,Газпромнефть,,Пермский край,standard,57.805404,57.650299,"проезд Центральная, 180",,АИ-100:17%(red) | АИ-92:21%(red) | АИ-95:5%(red) | ДТ:87%(green) | ДТ+:47%(yellow)
511,Лукойл,,Пермский край,standard,57.643646,57.680264,"ш. Морская, 180",,АИ-100:1%(red) | АИ-92:44%(yellow) | АИ-95:70%(green) | АИ-95+:53%(yellow) | Газ:43%(yellow)
512,Роснефть,,Пермский край,standard,57.936273,57.745148,"проезд Ленина, 93",,АИ-100:63%(green) | АИ-92:3%(red) | АИ-95:90%(green) | Газ:13%(red) | ДТ:35%(yellow)
513,Газпромнефть,,Пермский край,standard,58.686785,58.409181,"проезд Береговая, 63",,АИ-100:30%(yellow) | АИ-92:98%(green) | АИ-95:20%(red)
514,Роснефть,,Саратовская область,standard,51.050432,45.959586,"ш. Ленина, 31",,АИ-100:55%(yellow) | АИ-92:57%(yellow) | Газ:97%(green)
515,Лукойл,,Саратовская область,standard,52.088687,44.54329,"пер. Автозаводская, 77",,АИ-92:61%(green) | АИ-95:17%(red) | АИ-95+:94%(green) | ДТ:93%(green) | ДТ+:58%(yellow)
516,Газпром,,Саратовская область,standard,52.007016,44.622391,"проезд Корабельная, 47",,АИ-100:1%(red) | АИ-92:76%(green) | АИ-95:35%(yellow) | Газ:67%(green) | ДТ+:68%(green)
517,Роснефть,,Саратовская область,standard,51.227119,45.633281,"пер. Ленина, 64",,АИ-100:57%(yellow) | АИ-92:91%(green) | АИ-95+:11%(red) | ДТ:58%(yellow)
518,Лукойл,,Саратовская область,standard,51.825234,44.134207,"ул. Морская, 37",,АИ-95:99%(green) | Газ:42%(yellow) | ДТ:84%(green) | ДТ+:95%(green)
519,Газпром,,Саратовская область,standard,51.412135,46.834221,"проезд Автозаводская, 241",,АИ-92:45%(yellow) | АИ-95:37%(yellow) | АИ-95+:13%(red) | Газ:51%(yellow) | ДТ:57%(yellow)
520,Роснефть,,Саратовская область,standard,52.428035,44.742493,"ш. Корабельная, 137",,АИ-100:34%(yellow) | ДТ:81%(green) | ДТ+:100%(green)
521,Лукойл,,Саратовская область,standard,50.519727,45.131468,"пр-т Транспортная, 244",,АИ-92:56%(yellow) | АИ-95:82%(green) | Газ:79%(green)
522,Газпром,,Саратовская область,standard,51.042108,44.297198,"ул. Пушкина, 82",,АИ-100:96%(green) | АИ-95:68%(green) | АИ-95+:92%(green) | ДТ:33%(yellow)
523,Роснефть,,Саратовская область,standard,52.336883,45.91758,"ш. Октябрьская, 174",,АИ-100:14%(red) | АИ-95:7%(red) | Газ:16%(red) | ДТ:65%(green) | ДТ+:77%(green)
524,Лукойл,,Саратовская область,standard,52.041157,46.535737,"проезд Строителей, 20",,АИ-100:92%(green) | АИ-92:25%(yellow) | АИ-95:56%(yellow) | Газ:13%(red) | ДТ+:33%(yellow)
525,Газпром,,Саратовская область,standard,51.310943,45.84886,"проезд Ленина, 183",,АИ-95:35%(yellow) | АИ-95+:27%(yellow) | ДТ:16%(red) | ДТ+:21%(red)
526,Роснефть,,Саратовская область,standard,50.849628,45.101153,"пр-т Дзержинского, 91",,АИ-100:67%(green) | Газ:75%(green) | ДТ+:32%(yellow)
527,Лукойл,,Саратовская область,standard,51.466249,44.794252,"ул. Береговая, 56",,АИ-100:66%(green) | АИ-92:46%(yellow) | ДТ:60%(green) | ДТ+:15%(red)
528,Газпромнефть,,Ярославская область,standard,58.390196,38.872315,"ш. Ленина, 26",,АИ-100:91%(green) | АИ-92:85%(green) | АИ-95:76%(green) | ДТ+:83%(green)
529,Роснефть,,Ярославская область,standard,58.036427,39.038963,"пер. Московская, 42",,АИ-100:85%(green) | АИ-95+:72%(green) | ДТ+:78%(green)
530,Газпромнефть,,Ярославская область,standard,57.831214,38.563213,"проезд Морская, 243",,АИ-100:84%(green) | АИ-92:85%(green) | АИ-95+:33%(yellow) | ДТ+:91%(green)
531,Роснефть,,Ярославская область,standard,58.457679,40.085426,"пр-т Кирова, 89",,АИ-92:52%(yellow) | АИ-95:90%(green) | АИ-95+:87%(green) | Газ:91%(green) | ДТ+:23%(red)
532,Газпромнефть,,Ярославская область,standard,58.229249,38.87372,"ш. Корабельная, 222",,АИ-100:37%(yellow) | АИ-95:57%(yellow) | Газ:18%(red) | ДТ+:66%(green)
533,Роснефть,,Ярославская область,standard,57.620461,39.302566,"ш. Морская, 238",,АИ-100:63%(green) | АИ-92:93%(green) | ДТ:100%(green)
534,Газпромнефть,,Ярославская область,standard,57.836178,39.45839,"бульв. Автозаводская, 165",,АИ-92:40%(yellow) | АИ-95+:82%(green) | Газ:63%(green)
535,Роснефть,,Ярославская область,standard,57.500536,39.820862,"ш. Садовая, 74",,АИ-100:33%(yellow) | АИ-92:60%(green) | АИ-95+:91%(green) | ДТ:79%(green)
536,Газпромнефть,,Ярославская область,standard,58.241292,39.22277,"бульв. Заводская, 61",,АИ-100:88%(green) | АИ-92:2%(red) | АИ-95:32%(yellow) | АИ-95+:4%(red) | ДТ:72%(green)
537,Роснефть,,Ярославская область,standard,57.801476,39.448397,"пр-т Кирова, 12",,АИ-100:14%(red) | АИ-95:47%(yellow) | ДТ:32%(yellow)
538,Газпромнефть,,Ярославская область,standard,57.982821,39.547526,"бульв. Победы, 43",,АИ-92:2%(red) | АИ-95:50%(yellow) | АИ-95+:1%(red) | Газ:94%(green) | ДТ+:37%(yellow)
539,Роснефть,,Ярославская область,standard,58.250728,39.268301,"пер. Береговая, 156",,АИ-92:93%(green) | АИ-95:25%(yellow) | Газ:16%(red) | ДТ+:74%(green)
540,Газпромнефть,,Тверская область,standard,57.328226,33.513327,"ул. Октябрьская, 75",,АИ-95:1%(red) | АИ-95+:40%(yellow) | ДТ+:8%(red)
541,Роснефть,,Тверская область,standard,56.5021,34.042386,"бульв. Заводская, 84",,АИ-95+:63%(green) | ДТ:9%(red) | ДТ+:51%(yellow)
542,Лукойл,,Тверская область,standard,56.828919,35.895682,"пр-т Северная, 249",,Газ:20%(red) | ДТ:84%(green) | ДТ+:8%(red)
543,Газпромнефть,,Тверская область,standard,57.725271,33.661917,"ш. Садовая, 149",,АИ-100:90%(green) | АИ-92:91%(green) | АИ-95:71%(green) | Газ:52%(yellow) | ДТ+:71%(green)
544,Роснефть,,Тверская область,standard,56.923066,33.930481,"пр-т Береговая, 176",,АИ-92:93%(green) | АИ-95:85%(green) | Газ:60%(green) | ДТ:67%(green) | ДТ+:49%(yellow)
545,Лукойл,,Тверская область,standard,56.698269,35.310353,"ш. Кирова, 241",,АИ-92:2%(red) | АИ-95+:44%(yellow) | Газ:53%(yellow) | ДТ:46%(yellow) | ДТ+:90%(green)
546,Газпромнефть,,Тверская область,standard,56.73177,33.167627,"проезд Южная, 161",,АИ-92:92%(green) | АИ-95+:82%(green) | Газ:13%(red) | ДТ:87%(green) | ДТ+:74%(green)
547,Роснефть,,Тверская область,standard,57.882536,35.053252,"проезд Корабельная, 126",,АИ-92:9%(red) | АИ-95:99%(green) | Газ:83%(green)
548,Лукойл,,Тверская область,standard,57.40676,33.534203,"бульв. Полевая, 154",,АИ-100:78%(green) | АИ-95:66%(green) | ДТ+:21%(red)
549,Газпромнефть,,Тверская область,standard,57.492598,35.798646,"проезд Мира, 202",,АИ-95:90%(green) | Газ:84%(green) | ДТ+:32%(yellow)
550,Роснефть,,Тверская область,standard,56.917714,33.271341,"пр-т Красная, 197",,АИ-100:75%(green) | АИ-95+:86%(green) | Газ:46%(yellow) | ДТ:95%(green)
551,Лукойл,,Тверская область,standard,57.298712,35.464213,"пер. Строителей, 149",,АИ-100:83%(green) | АИ-95:3%(red) | АИ-95+:82%(green) | ДТ:61%(green) | ДТ+:90%(green)
552,Газпромнефть,,Тверская область,standard,56.942046,33.432421,"бульв. Шоссейная, 63",,АИ-92:61%(green) | АИ-95:22%(red) | Газ:32%(yellow)
553,Роснефть,,Республика Карелия,critical,61.216333,29.424039,"бульв. Мира, 123",,АИ-100:33%(yellow) | АИ-92:13%(red) | АИ-95:96%(green) | Газ:75%(green) | ДТ+:71%(green)
554,Газпромнефть,,Республика Карелия,critical,62.880738,31.89023,"пер. Ленина, 74",,АИ-92:25%(yellow) | АИ-95:36%(yellow) | ДТ+:52%(yellow)
555,Роснефть,,Республика Карелия,critical,64.676601,31.00749,"проезд Центральная, 109",,АИ-92:12%(red) | АИ-95+:33%(yellow) | ДТ:39%(yellow)
556,Газпромнефть,,Республика Карелия,critical,64.29002,32.90395,"бульв. Мира, 210",,АИ-100:83%(green) | АИ-95:10%(red) | АИ-95+:66%(green) | Газ:37%(yellow) | ДТ+:98%(green)
557,Роснефть,,Республика Карелия,critical,62.128828,31.166272,"ул. Садовая, 153",,АИ-95:18%(red) | АИ-95+:65%(green) | Газ:27%(yellow)
558,Газпромнефть,,Республика Карелия,critical,61.182722,30.258321,"ш. Ленина, 92",,АИ-100:23%(red) | АИ-95:3%(red) | АИ-95+:92%(green) | ДТ:33%(yellow)
559,Роснефть,,Республика Карелия,critical,61.094741,32.184277,"пер. Гагарина, 75",,АИ-100:21%(red) | АИ-95:100%(green) | ДТ+:74%(green)
560,Газпромнефть,,Республика Карелия,critical,61.644188,32.854669,"бульв. Полевая, 115",,АИ-95+:52%(yellow) | Газ:84%(green) | ДТ+:99%(green)
561,Роснефть,,Республика Карелия,critical,63.267603,32.977618,"ул. Ленина, 37",,АИ-100:96%(green) | АИ-92:5%(red) | ДТ:35%(yellow) | ДТ+:30%(yellow)
562,Газпромнефть,,Республика Карелия,critical,63.84262,30.842965,"пер. Северная, 196",,АИ-100:10%(red) | АИ-92:57%(yellow) | АИ-95:33%(yellow) | ДТ+:78%(green)
563,Роснефть,,Мурманская область,critical,68.864402,33.017827,"ш. Гагарина, 159",,АИ-100:47%(yellow) | АИ-92:9%(red) | АИ-95:7%(red) | Газ:54%(yellow) | ДТ+:50%(yellow)
564,Лукойл,,Мурманская область,critical,68.784969,34.20038,"пер. Нахимова, 22",,АИ-100:98%(green) | АИ-92:29%(yellow) | ДТ+:6%(red)
565,Роснефть,,Мурманская область,critical,68.904582,32.928658,"ш. Варшавская, 10",,АИ-100:83%(green) | АИ-95:49%(yellow) | Газ:15%(red) | ДТ:73%(green) | ДТ+:24%(red)
566,Лукойл,,Мурманская область,critical,68.004143,32.028317,"пр-т Мира, 71",,АИ-100:87%(green) | АИ-92:41%(yellow) | АИ-95+:63%(green) | ДТ:79%(green)
567,Роснефть,,Мурманская область,critical,68.198553,32.757303,"пер. Пушкина, 248",,АИ-100:37%(yellow) | АИ-92:89%(green) | АИ-95+:97%(green) | Газ:45%(yellow) | ДТ:45%(yellow)
568,Лукойл,,Мурманская область,critical,69.228603,31.840821,"проезд Шоссейная, 68",,АИ-100:59%(yellow) | АИ-92:72%(green) | АИ-95:19%(red) | АИ-95+:47%(yellow) | ДТ+:31%(yellow)
569,Роснефть,,Мурманская область,critical,69.443489,33.230509,"ул. Заводская, 209",,АИ-92:54%(yellow) | АИ-95+:47%(yellow) | Газ:46%(yellow) | ДТ+:59%(yellow)
570,Лукойл,,Мурманская область,critical,68.417647,32.619364,"бульв. Пушкина, 139",,АИ-100:3%(red) | АИ-95+:3%(red) | Газ:61%(green) | ДТ+:51%(yellow)
6,АТАН,,АР Крым и г. Севастополь,critical,44.91160648745362,34.75818288514432,"ул. Кирова, 81 (Керчь)",,АИ-92:62%(green) | АИ-95:20%(red) | Газ:28%(yellow) | ДТ:39%(yellow) | ДТ+:42%(yellow)
19,Лукойл,,АР Крым и г. Севастополь,critical,44.87751507455879,34.63467264250069,"ул. Генерала Петрова, 31 (Керчь)",,АИ-92:97%(green) | АИ-95:80%(green) | АИ-95+:59%(yellow)
56,Роснефть,,Краснодарский край,standard,45.10071358963134,39.547161680628456,"Сухумское ш., 76 (Новороссийск)",,АИ-95:70%(green) | Газ:94%(green) | ДТ:4%(red) | ДТ+:69%(green)
90,Роснефть,,Запорожская область,critical,47.50275534335754,35.5407358176679,"ул. Леваневского, 21 (Мелитополь)",,АИ-95+:50%(yellow) | Газ:100%(green) | ДТ:2%(red) | ДТ+:69%(green)
91,Восток-Ресурс,,Запорожская область,critical,47.61108134087224,35.480436414205435,"ул. Ломоносова, 320 (Мелитополь)",,АИ-100:45%(yellow) | АИ-95:99%(green) | АИ-95+:28%(yellow) | Газ:18%(red)
93,АТАН,,АР Крым и г. Севастополь,critical,44.89167537493115,34.74260847072284,"бульв. Советская, 2",,АИ-95:60%(green) | АИ-95+:9%(red) | ДТ+:52%(yellow)
143,Роснефть,,Запорожская область,critical,47.52070086998982,35.5969171393211,"бульв. Красная, 161",,АИ-100:21%(red) | АИ-92:44%(yellow) | АИ-95:59%(yellow) | Газ:86%(green) | ДТ:58%(yellow)
145,АЗС Юг,,Запорожская область,critical,47.51944864771106,35.5159297525157,"бульв. Гагарина, 224",,АИ-95:73%(green) | ДТ:10%(red) | ДТ+:60%(green)
150,Восток-Ресурс,,Запорожская область,critical,47.542387186722365,35.48553498648759,"пер. Ленина, 5",,АИ-92:93%(green) | АИ-95+:5%(red) | Газ:40%(yellow) | ДТ:66%(green) | ДТ+:52%(yellow)
151,АЗС Юг,,Запорожская область,critical,47.616322452101855,35.539705043925494,"ш. Береговая, 118",,АИ-100:60%(green) | АИ-95:2%(red) | АИ-95+:55%(yellow) | Газ:84%(green) | ДТ+:27%(yellow)
154,АЗС Юг,,Запорожская область,critical,47.53090654385365,35.49886179633845,"ул. Полевая, 155",,АИ-100:47%(yellow) | АИ-92:49%(yellow) | АИ-95+:49%(yellow) | Газ:99%(green) | ДТ:88%(green)
353,Газпромнефть,,Краснодарский край,standard,45.080674269589586,39.48132117782055,"бульв. Новая, 128",,АИ-100:73%(green) | АИ-92:58%(yellow) | АИ-95:97%(green) | Газ:62%(green) | ДТ:94%(green)
354,Газпром,,Краснодарский край,standard,45.085789605898015,39.4943193091183,"проезд Победы, 121",,АИ-100:31%(yellow) | АИ-92:44%(yellow) | АИ-95:31%(yellow) | Газ:29%(yellow) | ДТ+:70%(green)
356,Лукойл,,Краснодарский край,standard,45.179785102800324,39.526502128839546,"пер. Пушкина, 179",,АИ-100:35%(yellow) | АИ-95:100%(green) | ДТ:1%(red) | ДТ+:91%(green)
361,Газпромнефть,,Краснодарский край,standard,45.20776496656071,39.499457915730176,"проезд Шоссейная, 223",,АИ-100:91%(green) | АИ-92:99%(green) | АИ-95:87%(green)
362,Газпром,,Краснодарский край,standard,45.18358271431353,39.447864675561945,"проезд Морская, 162",,АИ-95:68%(green) | АИ-95+:96%(green) | Газ:89%(green) | ДТ+:70%(green)
367,Роснефть,,Краснодарский край,standard,45.15826932209407,39.489038973412214,"ш. Варшавская, 159",,АИ-95:81%(green) | АИ-95+:29%(yellow) | Газ:38%(yellow)
369,Газпромнефть,,Краснодарский край,standard,45.11816720034546,39.43028749284297,"ш. Мира, 49",,АИ-100:69%(green) | АИ-92:64%(green) | АИ-95:73%(green) | Газ:77%(green)
372,Лукойл,,Краснодарский край,standard,45.16158233610301,39.51484671925062,"бульв. Промышленная, 47",,АИ-95:53%(yellow) | Газ:67%(green) | ДТ+:80%(green)
158,Таврия-Ойл,,Херсонская область,critical,46.62111558653152,33.224695626535336,"ул. Береговая, 86",,АИ-100:20%(red) | АИ-95:36%(yellow) | АИ-95+:4%(red) | Газ:98%(green) | ДТ+:6%(red)
162,АЗС Юг,,Херсонская область,critical,46.54920975698995,33.193734243258525,"пр-т Дзержинского, 192",,АИ-100:43%(yellow) | АИ-95:61%(green) | Газ:18%(red) | ДТ:54%(yellow) | ДТ+:34%(yellow)
165,АЗС Юг,,Херсонская область,critical,46.65557399367232,33.28806766318719,"пр-т Московская, 152",,АИ-100:64%(green) | АИ-92:59%(yellow) | АИ-95:80%(green) | ДТ:67%(green)
167,Таврия-Ойл,,Херсонская область,critical,46.574825627823834,33.185606729863345,"ш. Кирова, 131",,АИ-100:56%(yellow) | АИ-95:56%(yellow) | Газ:71%(green) | ДТ:36%(yellow)
169,Восток-Ресурс,,Херсонская область,critical,46.56564643908628,33.27411917783257,"пр-т Промышленная, 9",,АИ-95:18%(red) | АИ-95+:57%(yellow) | Газ:67%(green) | ДТ:24%(red)
170,Таврия-Ойл,,Херсонская область,critical,46.58372300890988,33.316643174992656,"ул. Московская, 140",,АИ-100:62%(green) | АИ-92:47%(yellow) | АИ-95:2%(red)
171,АЗС Юг,,Херсонская область,critical,46.638604677910415,33.20396123863721,"проезд Рабочая, 221",,АИ-100:59%(yellow) | АИ-95:94%(green) | АИ-95+:78%(green) | ДТ:73%(green) | ДТ+:1%(red)
